X,Y,OBJECTID,SWID,NAME,ADDRESS,CITY,STATE,ZIP,ZIP4,TELEPHONE,TYPE,STATUS,COUNTY,COUNTYFIPS,COUNTRY,LATITUDE,LONGITUDE,NAICS_CODE,NAICS_DESC,SOURCE,SOURCEDATE,VAL_METHOD,VAL_DATE,WEBSITE,REG_ID,STATUSDATE,OWNER,CLOSE_DATE,PERMIT_NO
-17558301.9726,2445466.5867,1,15744,KANEOHE MARINE CORPS BASE LANDFILL,"MIDDAUGH ST, OAHU",KANEOHE,HI,96734,NOT AVAILABLE,(808) 257-6920,"MUNICIPAL, C&D",OPEN,HONOLULU,15003,USA,21.4487350239023,-157.728910251707,562212,"SOLID WASTE LANDFILLS, NONHAZARDOUS",http://health.hawaii.gov/shwb/files/2013/06/oahulandfills.pdf,2019/04/30 00:00:00+00,IMAGERY,2020/01/15 00:00:00+00,NOT AVAILABLE,110020733063,NOT AVAILABLE,UNITED STATE MARINE CORPS,NOT AVAILABLE,NOT AVAILABLE
-17602351.2734,2433460.7916,2,15750,WAIMANALO GULCH SANITARY LANDFILL,"92-460 FARRINGTON HIGHWAY, OAHU",WAIANAE,HI,96707,NOT AVAILABLE,(808) 668-4640,MUNICIPAL,OPEN,HONOLULU,15003,USA,21.3483197594494,-158.124611853055,562212,"SOLID WASTE LANDFILLS, NONHAZARDOUS",http://health.hawaii.gov/shwb/files/2013/06/oahulandfills.pdf,2019/04/30 00:00:00+00,IMAGERY,2020/01/15 00:00:00+00,http://www1.wmsolutions.com/facilities/details/id/198,110014055501,NOT AVAILABLE,WASTE MANAGEMENT INC,NOT AVAILABLE,LF-0054-02
-17352686.1558,2260402.4101,3,15751,WEST HAWAII LANDFILL / PUU ANAHULU,71-111 QUEEN KAAHUMANU HWY,WAIKOLOA,HI,85034,NOT AVAILABLE,NOT AVAILABLE,"MUNICIPAL, C&D",OPEN,HAWAII,15001,USA,19.8933615651841,-155.88183194319,562212,"SOLID WASTE LANDFILLS, NONHAZARDOUS",http://health.hawaii.gov/shwb/files/2013/06/neighborlandfills3.pdf,2019/04/30 00:00:00+00,IMAGERY,2020/01/15 00:00:00+00,http://www1.wmsolutions.com/facilities/details/id/197,110034132542,NOT AVAILABLE,WASTE MANAGEMENT INC,NOT AVAILABLE,LF0072-93
-17412992.948,2375049.5208,4,15740,CENTRAL MAUI LANDFILL REFUSE & RECYCLING CENTER,PULEHU ROAD & HANSEN ROAD,PUUNENE,HI,96784,NOT AVAILABLE,(808) 270-7880,MUNICIPAL,OPEN,MAUI,15009,USA,20.858796495362,-156.423577074922,562212,"SOLID WASTE LANDFILLS, NONHAZARDOUS",http://health.hawaii.gov/shwb/files/2013/06/neighborlandfills3.pdf,2019/04/30 00:00:00+00,IMAGERY,2020/01/15 00:00:00+00,http://www.co.maui.hi.us/Facilities/Facility/Details/5,110024880459,NOT AVAILABLE,NOT AVAILABLE,NOT AVAILABLE,NOT AVAILABLE
-16441668.9065,9556202.6772,5,216,FAIRBANKS NORTH STAR BOROUGH LANDFILL (SOUTH CUSHMAN),455 SANDURI ST,FAIRBANKS,AK,99701,7653,(907) 459-1482,"MUNICIPAL, C&D",OPEN,FAIRBANKS NORTH STAR,02090,USA,64.801208412838,-147.698024751241,562212,"SOLID WASTE LANDFILLS, NONHAZARDOUS",http://dec.alaska.gov/Applications/EH/SWIMS/ModFacility.aspx?siteId=89,2019/05/06 00:00:00+00,IMAGERY/OTHER,2020/05/08 00:00:00+00,http://co.fairbanks.ak.us/solidwaste/,110001717205,1/14/2019,FAIRBANKS NORTH STAR BOROUGH,NOT AVAILABLE,SW1A002-16
-13621304.2773,4926744.6362,6,6260,"ANDERSON LANDFILL, INC.",18703 CAMBRIDGE ROAD,ANDERSON,CA,96007,9165,(530) 347-5236,"MUNICIPAL, C&D",OPEN,SHASTA,06089,USA,40.4171280572141,-122.362258219042,562212,"SOLID WASTE LANDFILLS, NONHAZARDOUS",https://www2.calrecycle.ca.gov/swfacilities/directory,2019/04/29 00:00:00+00,IMAGERY/OTHER,2020/05/06 00:00:00+00,NOT AVAILABLE,110002690730,1/1/2093,"ANDERSON LANDFILL, INC",NOT AVAILABLE,45-AA-0020
-13613711.2531,4894812.5596,7,6366,TEHAMA COUNTY/RED BLUFF LANDFILL,"19995 PLYMIRE ROAD; 2 MI NW RED BLUFF",RED BLUFF,CA,96080,NOT AVAILABLE,(530) 528-1102,"MUNICIPAL, C&D",OPEN,TEHAMA,06103,USA,40.1983815312827,-122.29404892262,562212,"SOLID WASTE LANDFILLS, NONHAZARDOUS",https://www2.calrecycle.ca.gov/swfacilities/directory,2019/04/29 00:00:00+00,IMAGERY/OTHER,2020/05/06 00:00:00+00,NOT AVAILABLE,110017972782,1/1/2040,"MADERA DISPOSAL SYSTEMS, INC",NOT AVAILABLE,52-AA-0001
-13521423.4357,4662618.4045,8,6285,CITY OF SACRAMENTO LANDFILL,20 28TH ST,SACRAMENTO,CA,95816,NOT AVAILABLE,(916) 808-4934,MUNICIPAL,CLOSED,SACRAMENTO,06067,USA,38.586536970305,-121.465013353284,562212,"SOLID WASTE LANDFILLS, NONHAZARDOUS",https://www2.calrecycle.ca.gov/swfacilities/directory,2019/04/29 00:00:00+00,IMAGERY/OTHER,2020/05/06 00:00:00+00,NOT AVAILABLE,110001159424,1/30/2019,"CITY OF SACRAMENTO, DEPT OF UTILITIES",1/30/2014,34-AA-0018
-13579129.288,4610135.1451,9,6339,POTRERO HILLS LANDFILL,3675 POTRERO HILLS LANE,SUISUN CITY,CA,94585,NOT AVAILABLE,(707) 429-9600,"MUNICIPAL, C&D",OPEN,SOLANO,06095,USA,38.2170634696035,-121.98339384465,562212,"SOLID WASTE LANDFILLS, NONHAZARDOUS",https://www2.calrecycle.ca.gov/swfacilities/directory,2019/04/29 00:00:00+00,IMAGERY/OTHER,2020/05/06 00:00:00+00,NOT AVAILABLE,110017973193,2/14/2048,"POTRERO HILLS LANDFILL, INC",NOT AVAILABLE,48-AA-0075
-13560054.9242,4427636.3074,10,6274,BUENA VISTA DRIVE SANITARY LANDFILL,150 ROUNDTREE LANE (OFFICE ADDRESS),WATSONVILLE,CA,95076,NOT AVAILABLE,(831) 454-5156,"MUNICIPAL, C&D",OPEN,SANTA CRUZ,06087,USA,36.9176632192822,-121.812045918984,562212,"SOLID WASTE LANDFILLS, NONHAZARDOUS",https://www2.calrecycle.ca.gov/swfacilities/directory,2019/04/29 00:00:00+00,IMAGERY/OTHER,2020/05/06 00:00:00+00,NOT AVAILABLE,110017973291,7/1/2031,SANTA CRUZ COUNTY,NOT AVAILABLE,44-AA-0004
-13574121.0868,4580273.7157,11,6311,KELLER CANYON LANDFILL,901 BAILEY ROAD,PITTSBURG,CA,94565,4309,(925) 458-9800,"MUNICIPAL, C&D",OPEN,CONTRA COSTA,06013,USA,38.0060019068625,-121.938404407637,562212,"SOLID WASTE LANDFILLS, NONHAZARDOUS",https://www2.calrecycle.ca.gov/swfacilities/directory,2019/04/29 00:00:00+00,IMAGERY/OTHER,2020/05/06 00:00:00+00,NOT AVAILABLE,110001163053,12/31/2030,KELLER CANYON LANDFILL,NOT AVAILABLE,07-AA-0032
-13562706.922,4623888.9274,12,6342,RECOLOGY HAY ROAD,"6426 HAY ROAD; 1/4 MI W HWY 113",VACAVILLE,CA,95687,NOT AVAILABLE,(707) 678-4718,"MUNICIPAL, C&D",OPEN,SOLANO,06095,USA,38.314070393434,-121.835869220788,562212,"SOLID WASTE LANDFILLS, NONHAZARDOUS",https://www2.calrecycle.ca.gov/swfacilities/directory,2019/04/29 00:00:00+00,IMAGERY/OTHER,2020/05/06 00:00:00+00,NOT AVAILABLE,110017973415,1/1/2077,RECOLOGY HAY ROAD,NOT AVAILABLE,48-AA-0002
-13592705.3161,4435397.0773,13,6286,CITY OF SANTA CRUZ RESOURCE RECOVERY FAC,605 DIMEO LANE,SANTA CRUZ,CA,95060,5610,(831) 420-5160,"MUNICIPAL, C&D",OPEN,SANTA CRUZ,06087,USA,36.9733809010078,-122.10534938027,562212,"SOLID WASTE LANDFILLS, NONHAZARDOUS",https://www2.calrecycle.ca.gov/swfacilities/directory,2019/04/29 00:00:00+00,IMAGERY/OTHER,2020/05/06 00:00:00+00,NOT AVAILABLE,110012694209,1/1/2058,CITY OF SANTA CRUZ,NOT AVAILABLE,44-AA-0001
-13561477.3011,4426964.3768,14,6287,CITY OF WATSONVILLE LANDFILL,730 SAN ANDREAS ROAD,WATSONVILLE,CA,95076,9648,(831) 728-6046,"MUNICIPAL, C&D",OPEN,SANTA CRUZ,06087,USA,36.9128372431443,-121.824823348119,562212,"SOLID WASTE LANDFILLS, NONHAZARDOUS",https://www2.calrecycle.ca.gov/swfacilities/directory,2019/04/29 00:00:00+00,IMAGERY/OTHER,2020/05/06 00:00:00+00,NOT AVAILABLE,110012694218,12/31/2029,CITY OF WATSONVILLE,NOT AVAILABLE,44-AA-0002
-13514743.478,4374284.7497,15,6310,JOHNSON CANYON SANITARY LANDFILL,31400 JOHNSON CANYON ROAD,GONZALES,CA,93926,9400,(831) 755-1300,"MUNICIPAL, C&D",OPEN,MONTEREY,06053,USA,36.5335295713327,-121.405006272322,562212,"SOLID WASTE LANDFILLS, NONHAZARDOUS",https://www2.calrecycle.ca.gov/swfacilities/directory,2019/04/29 00:00:00+00,IMAGERY/OTHER,2020/05/06 00:00:00+00,NOT AVAILABLE,110012694307,12/21/2040,SALINAS VALLEY SOLID WASTE AUTHORITY,NOT AVAILABLE,27-AA-0005
-13590712.5651,4582999.0052,16,6257,ACME LANDFILL,950 WATERBIRD WAY,MARTINEZ,CA,94553,NOT AVAILABLE,(925) 228-7099,C&D,OPEN,CONTRA COSTA,06013,USA,38.0252896263153,-122.087448193279,562212,"SOLID WASTE LANDFILLS, NONHAZARDOUS",https://www2.calrecycle.ca.gov/swfacilities/directory,2019/04/29 00:00:00+00,IMAGERY/OTHER,2020/05/06 00:00:00+00,NOT AVAILABLE,110017973399,7/1/2021,ACME FILL CORPORATION,NOT AVAILABLE,07-AA-0002
-13623305.716,4575088.6883,17,6378,WEST CONTRA COSTA LANDFILL,PARR BLVD & GARDEN TRACT ROAD,RICHMOND,CA,94801,NOT AVAILABLE,(510) 262-1660,"MUNICIPAL, C&D",CLOSED,CONTRA COSTA,06013,USA,37.9692918453425,-122.380237449199,562212,"SOLID WASTE LANDFILLS, NONHAZARDOUS",https://www2.calrecycle.ca.gov/swfacilities/directory,2019/04/29 00:00:00+00,IMAGERY/OTHER,2020/05/06 00:00:00+00,NOT AVAILABLE,110034185637,8/3/2015,WEST CONTRA COSTA SANITARY LANDFILL INC,8/3/2010,07-AA-0001
-8117014.8245,5336574.7219,18,502761,WINHALL TRANSFER STATION,"66 OLD TOWN ROAD, BONDVILLE",WINHALL,VT,05340,NOT AVAILABLE,(802) 297-2122,TRANSFER,OPEN,BENNINGTON,50003,USA,43.1614248561722,-72.9163847824317,562111,"WASTE TRANSFER STATIONS, NONHAZARDOUS SOLID",https://anrweb.vt.gov/DEC/ERT/DataDump.aspx,2019/05/03 00:00:00+00,IMAGERY/OTHER,2020/04/05 00:00:00+00,NOT AVAILABLE,NOT AVAILABLE,NOT AVAILABLE,NOT AVAILABLE,NOT AVAILABLE,BN961
-13569969.5826,4469020.1107,19,6303,GUADALUPE DISPOSAL SITE LANDFILL,15999 GUADALUPE MINES ROAD,SAN JOSE,CA,95120,NOT AVAILABLE,(408) 268-1670,"MUNICIPAL, C&D",OPEN,SANTA CLARA,06085,USA,37.2143030268633,-121.901110811115,562212,"SOLID WASTE LANDFILLS, NONHAZARDOUS",https://www2.calrecycle.ca.gov/swfacilities/directory,2019/04/29 00:00:00+00,IMAGERY/OTHER,2020/05/06 00:00:00+00,NOT AVAILABLE,110034187378,1/1/2048,"GUADALUPE RUBBISH DISPOSAL CO, INC",NOT AVAILABLE,43-AN-0015
-13549965.1341,4543771.1056,20,6375,VASCO ROAD SANITARY LANDFILL,4001 N VASCO RD,LIVERMORE,CA,94551,9766,(925) 447-0491,"MUNICIPAL, C&D",OPEN,ALAMEDA,06001,USA,37.7471727061555,-121.721407792436,562212,"SOLID WASTE LANDFILLS, NONHAZARDOUS",https://www2.calrecycle.ca.gov/swfacilities/directory,2019/04/29 00:00:00+00,IMAGERY/OTHER,2020/05/06 00:00:00+00,NOT AVAILABLE,110009544671,12/31/2022,"REPUBLIC SERVICES OF CALIFORNIA, LLC",NOT AVAILABLE,01-AA-0010
-13543040.6488,4544951.4939,21,6258,ALTAMONT LANDFILL & RESOURCE RECOVERY,10840 ALTAMONT PASS ROAD,LIVERMORE,CA,94551,9722,(510) 613-8710,"MUNICIPAL, C&D",OPEN,ALAMEDA,06001,USA,37.7555567141711,-121.659204082303,562212,"SOLID WASTE LANDFILLS, NONHAZARDOUS",https://www2.calrecycle.ca.gov/swfacilities/directory,2019/04/29 00:00:00+00,IMAGERY/OTHER,2020/05/06 00:00:00+00,NOT AVAILABLE,110000831404,1/1/2025,WASTE MANAGEMENT OF ALAMEDA COUNTY,NOT AVAILABLE,01-AA-0009
-13573858.9535,4502842.4853,22,6331,NEWBY ISLAND SANITARY LANDFILL,1601 DIXON LANDING ROAD,MILPITAS,CA,95035,NOT AVAILABLE,(408) 262-1401,"MUNICIPAL, C&D",OPEN,SANTA CLARA,06085,USA,37.4558797782292,-121.936049623691,562212,"SOLID WASTE LANDFILLS, NONHAZARDOUS",https://www2.calrecycle.ca.gov/swfacilities/directory,2019/04/29 00:00:00+00,IMAGERY/OTHER,2020/05/06 00:00:00+00,NOT AVAILABLE,110006533117,1/1/2041,INTERNATIONAL DISPOSAL CORPORATION,NOT AVAILABLE,43-AN-0003
-13371391.0175,4302663.9911,23,6263,AVENAL REGIONAL LANDFILL,201 NORTH HYDRIL ROAD,AVENAL,CA,93204,NOT AVAILABLE,(559) 386-5766,"MUNICIPAL, C&D",OPEN,KING,06031,USA,36.0148433842149,-120.117249209983,562212,"SOLID WASTE LANDFILLS, NONHAZARDOUS",https://www2.calrecycle.ca.gov/swfacilities/directory,2019/04/29 00:00:00+00,IMAGERY/OTHER,2020/05/06 00:00:00+00,NOT AVAILABLE,110012694708,12/31/2020,"MADERA DISPOSAL SYSTEMS, INC",NOT AVAILABLE,16-AA-0004
-13485352.3492,4494133.3038,24,6297,FINK ROAD LANDFILL,4000 FINK ROAD,CROWS LANDING,CA,95360,NOT AVAILABLE,(209) 525-6770,"MUNICIPAL, C&D",OPEN,STANISLAUS,06099,USA,37.3937486209022,-121.14098126997,562212,"SOLID WASTE LANDFILLS, NONHAZARDOUS",https://www2.calrecycle.ca.gov/swfacilities/directory,2019/04/29 00:00:00+00,IMAGERY/OTHER,2020/05/06 00:00:00+00,NOT AVAILABLE,110012694281,12/1/2023,STANISLAUS COUNTY,NOT AVAILABLE,50-AA-0001
-13359185.9148,4294969.0362,25,6293,"CWMI, KHF (MSW LANDFILL B-19)",35251 OLD SKYLINE ROAD,KETTLEMAN CITY,CA,93239,NOT AVAILABLE,(713) 512-6200,"MUNICIPAL, C&D",OPEN,KINGS,06031,USA,35.9589108202782,-120.007608906826,562212,"SOLID WASTE LANDFILLS, NONHAZARDOUS",https://www2.calrecycle.ca.gov/swfacilities/directory,2019/04/29 00:00:00+00,IMAGERY/OTHER,2020/05/06 00:00:00+00,NOT AVAILABLE,110000481443,NOT AVAILABLE,"CHEMICAL WASTE MANAGEMENT, INC",NOT AVAILABLE,16-AA-0021
-13480848.363,4593276.5968,26,6332,NORTH COUNTY LANDFILL & RECYCLING CENTER,17720 EAST HARNEY LANE,LODI,CA,95240,NOT AVAILABLE,(209) 468-3066,"MUNICIPAL, C&D",OPEN,SAN JOAQUIN,06077,USA,38.0979816591263,-121.100521273838,562212,"SOLID WASTE LANDFILLS, NONHAZARDOUS",https://www2.calrecycle.ca.gov/swfacilities/directory,2019/04/29 00:00:00+00,IMAGERY/OTHER,2020/05/06 00:00:00+00,NOT AVAILABLE,110012694021,12/31/2048,COUNTY OF SAN JOAQUIN PUBLIC WORKS DEPT,NOT AVAILABLE,39-AA-0022
-13258381.6599,4303533.1344,27,6364,TEAPOT DOME DISPOSAL SITE,AVENUE 128 AND ROAD 208,PORTERVILLE,CA,93257,NOT AVAILABLE,(559) 733-6291,"MUNICIPAL, C&D",OPEN,TULARE,06107,USA,36.021158461394,-119.102068877976,562212,"SOLID WASTE LANDFILLS, NONHAZARDOUS",https://www2.calrecycle.ca.gov/swfacilities/directory,2019/04/29 00:00:00+00,IMAGERY/OTHER,2020/05/06 00:00:00+00,NOT AVAILABLE,110014327843,12/31/2022,TULARE COUNTY,NOT AVAILABLE,54-AA-0004
-13491148.3106,4652272.7541,28,6347,SACRAMENTO COUNTY LANDFILL (KIEFER),12701 KIEFER BLVD,SLOUGHHOUSE,CA,95683,NOT AVAILABLE,(916) 875-6789,"MUNICIPAL, C&D",OPEN,SACRAMENTO,06067,USA,38.5138547850704,-121.19304727701,562212,"SOLID WASTE LANDFILLS, NONHAZARDOUS",https://www2.calrecycle.ca.gov/swfacilities/directory,2019/04/29 00:00:00+00,IMAGERY/OTHER,2020/05/06 00:00:00+00,NOT AVAILABLE,110017972764,1/1/2064,SACRAMENTO COUNTY DEPT OF WM & RECYCLING,NOT AVAILABLE,34-AA-0001
-13169037.2824,4049053.0468,29,6368,TOYON CANYON PARK RECLAMATION PROJECT,5050 MT HOLLYWOOD DRIVE,LOS ANGELES,CA,90027,NOT AVAILABLE,(800) 773-2489,NOT AVAILABLE,CLOSED,LOS ANGELES,06037,USA,34.1506828878051,-118.299474679013,562212,"SOLID WASTE LANDFILLS, NONHAZARDOUS",https://www2.calrecycle.ca.gov/swfacilities/directory,2019/04/29 00:00:00+00,IMAGERY/OTHER,2020/05/06 00:00:00+00,NOT AVAILABLE,110001158407,NOT AVAILABLE,CITY OF LOS ANGELES BUREAU OF SANITATION,NOT AVAILABLE,19-AA-0819
-8119110.2612,5277304.9639,30,502733,READSBORO TRANSFER STATION,NOT AVAILABLE,READSBORO,VT,05350,NOT AVAILABLE,(802) 423-7010,TRANSFER,OPEN,BENNINGTON,50003,USA,42.7718213112046,-72.9352084112392,562111,"WASTE TRANSFER STATIONS, NONHAZARDOUS SOLID",https://anrweb.vt.gov/DEC/ERT/DataDump.aspx,2019/05/03 00:00:00+00,IMAGERY/OTHER,2020/04/05 00:00:00+00,NOT AVAILABLE,NOT AVAILABLE,NOT AVAILABLE,NOT AVAILABLE,NOT AVAILABLE,BN612
-13193293.7395,4073004.6082,31,6361,SUNSHINE CANYON CITY/COUNTY LANDFILL,14747 SAN FERNANDO ROAD,SYLMAR,CA,91342,NOT AVAILABLE,(818) 833-6511,"MUNICIPAL, C&D",OPEN,LOS ANGELES,06037,USA,34.3285541826295,-118.517374140704,562212,"SOLID WASTE LANDFILLS, NONHAZARDOUS",https://www2.calrecycle.ca.gov/swfacilities/directory,2019/04/29 00:00:00+00,IMAGERY/OTHER,2020/05/06 00:00:00+00,NOT AVAILABLE,110033204887,12/31/2037,"BROWNING-FERRIS INDUSTRY OF CALIFORNIA, INC",NOT AVAILABLE,19-AA-2000
-13137695.9723,4032406.7113,32,6341,PUENTE HILLS LANDFILL,13130 CROSSROADS PARKWAY SOUTH,CITY OF INDUSTRY,CA,90601,3454,(652) 699-7411,"MUNICIPAL, C&D",CLOSED,LOS ANGELES,06037,USA,34.0268411860719,-118.017930900291,562212,"SOLID WASTE LANDFILLS, NONHAZARDOUS",https://www2.calrecycle.ca.gov/swfacilities/directory,2019/04/29 00:00:00+00,IMAGERY/OTHER,2020/05/06 00:00:00+00,NOT AVAILABLE,110034181579,7/8/2015,LOS ANGELES COUNTY SANITATION DISTRICT 2,NOT AVAILABLE,19-AA-0053
-12728511.5243,6158453.029,33,301502,FLATHEAD COUNTY SOLID WASTE DISTRICT,4098 US HWY 93 NORTH,KALISPELL,MT,59937,NOT AVAILABLE,(406) 758-5910,MUNICIPAL,CLOSED,FLATHEAD,30029,USA,48.3092197711755,-114.342164464019,562212,"SOLID WASTE LANDFILLS, NONHAZARDOUS",http://deq.mt.gov/solidwaste/default.mcpx,2019/05/01 00:00:00+00,IMAGERY,2020/04/29 00:00:00+00,http://flathead.mt.gov/waste/,110037945739,NOT AVAILABLE,NOT AVAILABLE,NOT AVAILABLE,18B
-12691971.0643,5925657.1882,34,301483,"ALLIED WASTE SYSTEMS OF MONTANA, LLC - MISSOULA LANDFILL",3737 COAL MINE ROAD,MISSOULA,MT,59802,NOT AVAILABLE,(406) 543-3157,MUNICIPAL,CLOSED,MISSOULA,30063,USA,46.899327358271,-114.013915926379,562212,"SOLID WASTE LANDFILLS, NONHAZARDOUS",http://deq.mt.gov/solidwaste/default.mcpx,2019/05/01 00:00:00+00,IMAGERY,2020/04/29 00:00:00+00,http://www.republicservices.com/site/missoula-mt/en/pages/home.aspx,110030917765,NOT AVAILABLE,NOT AVAILABLE,NOT AVAILABLE,116A
-12457207.8954,5871400.0678,35,301531,VALLEYVIEW LANDFILL,300 HWY 518,MONTANA CITY,MT,59635,NOT AVAILABLE,(406) 227-6300,MUNICIPAL,OPEN,JEFFERSON,30043,USA,46.5652610163829,-111.905002498866,562212,"SOLID WASTE LANDFILLS, NONHAZARDOUS",http://deq.mt.gov/solidwaste/default.mcpx,2019/05/01 00:00:00+00,IMAGERY,2020/04/29 00:00:00+00,http://tcd.us.com/landfill.html,110040441297,NOT AVAILABLE,NOT AVAILABLE,NOT AVAILABLE,296A
-12454345.5573,5889125.2973,36,301508,LEWIS & CLARK COUNTY LANDFILL,4075 DEAL LANE,HELENA,MT,59602,NOT AVAILABLE,(406) 457-8521,MUNICIPAL,OPEN,LEWIS & CLARK,30049,USA,46.6746245639725,-111.879289678276,562212,"SOLID WASTE LANDFILLS, NONHAZARDOUS",http://deq.mt.gov/solidwaste/default.mcpx,2019/05/01 00:00:00+00,IMAGERY/OTHER,2020/04/29 00:00:00+00,http://www.lccountymt.gov/public-works/solid-waste.html,110010345867,NOT AVAILABLE,NOT AVAILABLE,NOT AVAILABLE,360
-12535561.6286,5783725.285,37,301490,BUTTE-SILVER BOW LANDFILL,121074 NORTH BROWNS GULCH ROAD,BUTTE,MT,59701,NOT AVAILABLE,(406) 782-1463,MUNICIPAL,CLOSED,SILVER BOW,30093,USA,46.0210633839681,-112.608866059621,562212,"SOLID WASTE LANDFILLS, NONHAZARDOUS",http://deq.mt.gov/solidwaste/default.mcpx,2019/05/01 00:00:00+00,IMAGERY,2020/04/29 00:00:00+00,http://www.co.silverbow.mt.us/177/Solid-Waste-Services,110011048543,NOT AVAILABLE,NOT AVAILABLE,NOT AVAILABLE,330
-12377299.0992,6044554.7758,38,301504,HIGH PLAINS SANITARY LANDFILL,142 POWERLINE ROAD,FLOWEREE,MT,59440,NOT AVAILABLE,(406) 452-3143,MUNICIPAL,OPEN,CASCADE,30013,USA,47.6241606683802,-111.18716956912,562212,"SOLID WASTE LANDFILLS, NONHAZARDOUS",http://deq.mt.gov/solidwaste/default.mcpx,2019/05/01 00:00:00+00,IMAGERY,2020/04/29 00:00:00+00,https://plus.google.com/106254243562740114742/about?gl=us&hl=en,110011049123,NOT AVAILABLE,NOT AVAILABLE,NOT AVAILABLE,225
-12198931.47,6197147.2675,39,301529,UNIFIED DISPOSAL DISTRICT,7055 ROAD 451 SE,HAVRE,MT,59501,NOT AVAILABLE,(406) 265-9404,MUNICIPAL,CLOSED,HILL,30041,USA,48.5398860769809,-109.584865894146,562212,"SOLID WASTE LANDFILLS, NONHAZARDOUS",http://deq.mt.gov/solidwaste/default.mcpx,2019/05/01 00:00:00+00,IMAGERY,2020/04/29 00:00:00+00,http://hillcounty.us/Sanitarian.html,110044273443,NOT AVAILABLE,NOT AVAILABLE,NOT AVAILABLE,490
-10782678.919,5923187.5002,40,381644,CITY OF FARGO LANDFILL,4501 7TH AVENUE NORTH,FARGO,ND,58102,NOT AVAILABLE,(701) 241-1449,MUNICIPAL,OPEN,CASS,38017,USA,46.8841661969125,-96.8624527672814,562212,"SOLID WASTE LANDFILLS, NONHAZARDOUS",https://www.ndhealth.gov/wm/Publications/MunicipalSolidWasteFacilities.pdf,2019/05/01 00:00:00+00,IMAGERY,2020/04/23 00:00:00+00,http://www.cityoffargo.com/CityInfo/Departments/SolidWaste/Landfillrules/,110001505176,NOT AVAILABLE,NOT AVAILABLE,NOT AVAILABLE,NOT AVAILABLE
-11607962.2896,6082161.3117,41,301518,RICHLAND COUNTY LANDFILL,13436 HIGHWAY 16,SIDNEY,MT,59221,NOT AVAILABLE,(406) 798-3352,MUNICIPAL,OPEN,RICHLAND,30083,USA,47.8513560731244,-104.276099422251,562212,"SOLID WASTE LANDFILLS, NONHAZARDOUS",http://deq.mt.gov/solidwaste/default.mcpx,2019/05/01 00:00:00+00,IMAGERY,2020/04/29 00:00:00+00,https://mt-richlandcounty.civicplus.com/index.aspx?NID=397,110043743651,NOT AVAILABLE,NOT AVAILABLE,NOT AVAILABLE,376
-10810722.828,6103536.2676,42,381661,GRAND FORKS MUNICIPAL SOLID WASTE LANDFILL,5500 54TH AVENUE NORTH,GRAND FORKS,ND,58203,NOT AVAILABLE,(701) 738-8740,MUNICIPAL,OPEN,GRAND FORKS,38035,USA,47.980048558794,-97.1143754876386,562212,"SOLID WASTE LANDFILLS, NONHAZARDOUS",https://www.ndhealth.gov/wm/Publications/MunicipalSolidWasteFacilities.pdf,2019/05/01 00:00:00+00,IMAGERY,2020/04/23 00:00:00+00,http://www.grandforksgov.com/government/public-works/public-works-sanitation,110040475269,NOT AVAILABLE,NOT AVAILABLE,NOT AVAILABLE,SW-0347
-11014383.972,6106577.214,43,381691,ST. MICHAEL'S/FT. TOTTEN LANDFILL,NORTH DAKOTA HWY 57,SAINT MICHAEL,ND,58335,NOT AVAILABLE,NOT AVAILABLE,MUNICIPAL,CLOSED,BENSON,38005,USA,47.998331221109,-98.9438946717017,562212,"SOLID WASTE LANDFILLS, NONHAZARDOUS",NOT AVAILABLE,2019/05/01 00:00:00+00,IMAGERY,2020/04/23 00:00:00+00,NOT AVAILABLE,110039541733,NOT AVAILABLE,NOT AVAILABLE,NOT AVAILABLE,NOT AVAILABLE
-11533261.1316,6131816.8595,44,381699,WILLISTON LANDFILL,5176 134TH AVE NW,WILLISTON,ND,58801,NOT AVAILABLE,NOT AVAILABLE,MUNICIPAL,OPEN,WILLIAMS,38105,USA,48.1498261395648,-103.60504750224,562212,"SOLID WASTE LANDFILLS, NONHAZARDOUS",https://www.ndhealth.gov/wm/Publications/MunicipalSolidWasteFacilities.pdf,2019/05/01 00:00:00+00,IMAGERY,2020/04/23 00:00:00+00,http://cityofwilliston.com/DepartmentContent.aspx?DeptID=PW&PageID=14,110014008830,NOT AVAILABLE,NOT AVAILABLE,NOT AVAILABLE,NOT AVAILABLE
-11776389.3242,5846535.5714,45,301513,CUSTER COUNTY LANDFILL,5100 LEIGHTON BOULEVARD,MILES CITY,MT,59301,NOT AVAILABLE,(406) 232-7991,MUNICIPAL,OPEN,CUSTER,30017,USA,46.4114763169785,-105.789105216832,562212,"SOLID WASTE LANDFILLS, NONHAZARDOUS",http://deq.mt.gov/solidwaste/default.mcpx,2019/05/01 00:00:00+00,IMAGERY,2020/04/29 00:00:00+00,https://plus.google.com/105331931276461284900/about?gl=us&hl=en,110012305674,NOT AVAILABLE,NOT AVAILABLE,NOT AVAILABLE,227
-10814914.7738,6097119.531,46,381660,GRAND FORKS LANDFILL,2350 83RD ST NORTH,GRAND FORKS,ND,58201,NOT AVAILABLE,(701) 738-8740,C&D,OPEN,GRAND FORKS,38035,USA,47.9414488462873,-97.1520323778919,562212,"SOLID WASTE LANDFILLS, NONHAZARDOUS",https://www.ndhealth.gov/wm/Publications/InertWasteFacilities.pdf,2019/05/01 00:00:00+00,IMAGERY,2020/04/23 00:00:00+00,NOT AVAILABLE,110010350217,NOT AVAILABLE,NOT AVAILABLE,NOT AVAILABLE,NOT AVAILABLE
-11281771.9542,6142382.7567,47,381679,MINOT LANDFILL,3100 20TH AVE SW,MINOT,ND,58701,NOT AVAILABLE,(701) 857-4140,"MUNICIPAL, C&D",OPEN,WARD,38101,USA,48.2131129850762,-101.345881783717,562212,"SOLID WASTE LANDFILLS, NONHAZARDOUS",https://www.ndhealth.gov/wm/Publications/MunicipalSolidWasteFacilities.pdf,2019/05/01 00:00:00+00,IMAGERY,2020/04/23 00:00:00+00,http://www.minotnd.org/index.php?option=com_content&view=article&id=15&Itemid=93,110009297616,NOT AVAILABLE,NOT AVAILABLE,NOT AVAILABLE,NOT AVAILABLE
-11099973.3162,5823320.632,48,381665,JAHNER LANDFILL,7971 32ND AVE. SE,WISHEK,ND,58495,NOT AVAILABLE,(920) 732-4473,MUNICIPAL,OPEN,MCINTOSH,38051,USA,46.2675014530297,-99.712756832262,562212,"SOLID WASTE LANDFILLS, NONHAZARDOUS",https://www.ndhealth.gov/wm/Publications/MunicipalSolidWasteFacilities.pdf,2019/05/01 00:00:00+00,IMAGERY,2020/04/23 00:00:00+00,http://www.wm.com/find-a-facility.jsp#/?address=58495%20usa&radius=80500,110012588155,NOT AVAILABLE,WASTE MANAGEMENT INC,NOT AVAILABLE,NOT AVAILABLE
-11654717.8625,5959229.3769,49,301493,CITY OF GLENDIVE SANITARY LANDFILL,801 EAST BRENNAN STREET,GLENDIVE,MT,59330,NOT AVAILABLE,(406) 377-9839,MUNICIPAL,CLOSED,DAWSON,30021,USA,47.1049985303579,-104.696111880259,562212,"SOLID WASTE LANDFILLS, NONHAZARDOUS",http://deq.mt.gov/solidwaste/default.mcpx,2019/05/01 00:00:00+00,IMAGERY,2020/04/29 00:00:00+00,http://www.cityofglendive.us/departments/public_works/waste_disposal/index.php,110011048320,NOT AVAILABLE,NOT AVAILABLE,NOT AVAILABLE,4A
-13037826.8125,4022642.2633,50,6264,BADLANDS SANITARY LANDFILL,31125 IRONWOOD AVENUE,MORENO VALLEY,CA,92236,NOT AVAILABLE,(951) 486-3200,"MUNICIPAL, C&D",OPEN,RIVERSIDE,06065,USA,33.9541135751814,-117.120790973724,562212,"SOLID WASTE LANDFILLS, NONHAZARDOUS",https://www2.calrecycle.ca.gov/swfacilities/directory,2019/04/29 00:00:00+00,IMAGERY/OTHER,2020/05/06 00:00:00+00,NOT AVAILABLE,110017973335,1/1/2022,RIVERSIDE COUNTY WMD,NOT AVAILABLE,33-AA-0006
-12402172.0777,5760444.3321,51,301503,GALLATIN COUNTY LANDFILL - LOGAN,10585 TWO DOG ROAD,MANHATTAN,MT,59752,NOT AVAILABLE,(406) 284-4029,MUNICIPAL,CLOSED,GALLATIN,30031,USA,45.8756496443157,-111.410607336559,562212,"SOLID WASTE LANDFILLS, NONHAZARDOUS",http://deq.mt.gov/solidwaste/default.mcpx,2019/05/01 00:00:00+00,IMAGERY,2020/04/29 00:00:00+00,http://www.gallatin.mt.gov/Public_Documents/gallatincomt_Landfill/landfill,110011048179,NOT AVAILABLE,NOT AVAILABLE,NOT AVAILABLE,158
-12380350.4199,5746471.3859,52,301523,THORNTON CLASS III LANDFILL,4395 THORP ROAD,BELGRADE,MT,59714,NOT AVAILABLE,NOT AVAILABLE,C&D,CLOSED,GALLATIN,30031,USA,45.7881908793057,-111.214580049829,562212,"SOLID WASTE LANDFILLS, NONHAZARDOUS",http://deq.mt.gov/solidwaste/default.mcpx,2019/05/01 00:00:00+00,IMAGERY/OTHER,2020/04/29 00:00:00+00,NOT AVAILABLE,110024879817,NOT AVAILABLE,NOT AVAILABLE,NOT AVAILABLE,431
-12083159.8787,5736173.6856,53,301487,BILLINGS REGIONAL LANDFILL,5240 JELLISON ROAD,BILLINGS,MT,59101,NOT AVAILABLE,(406) 657-8260,MUNICIPAL,OPEN,YELLOWSTONE,30111,USA,45.7236480604097,-108.544871995246,562212,"SOLID WASTE LANDFILLS, NONHAZARDOUS",http://deq.mt.gov/solidwaste/default.mcpx,2019/05/01 00:00:00+00,IMAGERY/OTHER,2020/04/29 00:00:00+00,http://ci.billings.mt.us/index.aspx?NID=577,110041903571,NOT AVAILABLE,NOT AVAILABLE,NOT AVAILABLE,113
-12358847.0803,5734728.909,54,301492,CITY OF BOZEMAN LANDFILL,2143 STORY MILL ROAD,BOZEMAN,MT,59715,2127,(406) 587-7890,C&D,OPEN,GALLATIN,30031,USA,45.7145866731365,-111.021412263665,562212,"SOLID WASTE LANDFILLS, NONHAZARDOUS",http://deq.mt.gov/solidwaste/default.mcpx,2019/05/01 00:00:00+00,IMAGERY,2020/04/29 00:00:00+00,http://www.gallatin.mt.gov/Public_Documents/gallatincomt_gswmd/HP_BCS,110028112405,NOT AVAILABLE,NOT AVAILABLE,NOT AVAILABLE,196
-11902866.3547,5589198.7897,55,562847,SHERIDAN CITY EXISTING LANDFIL,83 EAST RIDGE ROAD,SHERIDAN,WY,82801,NOT AVAILABLE,(307) 674-8461,"MUNICIPAL, C&D",OPEN,SHERIDAN,56033,USA,44.794316805876,-106.925267712235,562212,"SOLID WASTE LANDFILLS, NONHAZARDOUS",http://www.sheridanwy.net/departments/utilities/solid-waste/landfill,2019/05/03 00:00:00+00,IMAGERY,2020/03/23 00:00:00+00,http://www.sheridanwy.net/departments/utilities/solid-waste/landfill,110042254681,NOT AVAILABLE,NOT AVAILABLE,NOT AVAILABLE,NOT AVAILABLE
-11969663.0715,5738428.9074,56,301494,CITY OF HARDIN LANDFILL,3794 EAST SARPY ROAD,HARDIN,MT,59022,NOT AVAILABLE,NOT AVAILABLE,MUNICIPAL,OPEN,BIG HORN,30003,USA,45.7377894813995,-107.525312829124,562212,"SOLID WASTE LANDFILLS, NONHAZARDOUS",http://deq.mt.gov/solidwaste/default.mcpx,2019/05/01 00:00:00+00,IMAGERY,2020/04/29 00:00:00+00,http://www.hardinmt.com/Sanitation.html,110011048268,NOT AVAILABLE,NOT AVAILABLE,NOT AVAILABLE,348
-17662553.0985,7745924.0669,57,244,PORT HEIDEN FORMER LANDFILL (MESHIK),OLD LANDFILL NEAR JACKS NEW MESHIK MALL,PORT HEIDEN,AK,99549,NOT AVAILABLE,(907) 837-2441,MUNICIPAL,CLOSED,LAKE AND PENINSULA,02164,USA,56.9304869810894,-158.665414049219,562212,"SOLID WASTE LANDFILLS, NONHAZARDOUS",http://dec.alaska.gov/Applications/EH/SWIMS/ModFacility.aspx?siteId=558,2019/05/06 00:00:00+00,IMAGERY/OTHER,2020/05/08 00:00:00+00,http://dec.alaska.gov/Applications/SPAR/CCReports/Site_Report.aspx?Hazard_ID=25430,110042230573,NOT AVAILABLE,CITY OF PORT HEIDEN,12/31/2010,NOT AVAILABLE
-7325931.5548,2052556.2039,58,722121,HUMACAO MUNICIPAL LANDFILL,CARR 3 - KM 78.2,HUMACAO,PR,00791,NOT AVAILABLE,NOT AVAILABLE,MUNICIPAL,OPEN,HUMACAO,72069,PRI,18.1281710165792,-65.8099628610971,562212,"SOLID WASTE LANDFILLS, NONHAZARDOUS",http://www.ads.pr.gov/mapas/mapa-srs.html,2020/01/02 00:00:00+00,IMAGERY/OTHER,2020/01/02 00:00:00+00,NOT AVAILABLE,110018900803,NOT AVAILABLE,NOT AVAILABLE,NOT AVAILABLE,NOT AVAILABLE
-8134932.4741,5275535.7763,59,502741,STAMFORD TRANSFER STATION,NOT AVAILABLE,STAMFORD,VT,05352,NOT AVAILABLE,(802) 694-1361,TRANSFER,OPEN,BENNINGTON,50003,USA,42.7601538199429,-73.0773417676085,562111,"WASTE TRANSFER STATIONS, NONHAZARDOUS SOLID",https://anrweb.vt.gov/DEC/ERT/DataDump.aspx,2019/05/03 00:00:00+00,IMAGERY/OTHER,2020/04/05 00:00:00+00,NOT AVAILABLE,NOT AVAILABLE,NOT AVAILABLE,NOT AVAILABLE,NOT AVAILABLE,BN762
-8064211.5702,5468087.8227,60,502686,CHELSEA TRANSFER STATION,72 WASHINGTON TURNPIKE,CHELSEA,VT,05038,NOT AVAILABLE,(802) 685-3258,TRANSFER,OPEN,ORANGE,50017,USA,44.0170934980665,-72.4420450791171,562111,"WASTE TRANSFER STATIONS, NONHAZARDOUS SOLID",https://anrweb.vt.gov/DEC/ERT/DataDump.aspx,2019/05/03 00:00:00+00,IMAGERY/OTHER,2020/04/05 00:00:00+00,NOT AVAILABLE,NOT AVAILABLE,NOT AVAILABLE,NOT AVAILABLE,NOT AVAILABLE,OG131
-8037845.7879,5436408.8594,61,502744,THETFORD TRANSFER STATION & RECYCLING CENTER,VT RTE 113,THETFORD,VT,05043,NOT AVAILABLE,(802) 785-2922,TRANSFER,OPEN,ORANGE,50017,USA,43.8120918226795,-72.2051972265707,562111,"WASTE TRANSFER STATIONS, NONHAZARDOUS SOLID",https://anrweb.vt.gov/DEC/ERT/DataDump.aspx,2019/05/03 00:00:00+00,IMAGERY/OTHER,2020/04/05 00:00:00+00,NOT AVAILABLE,NOT AVAILABLE,NOT AVAILABLE,NOT AVAILABLE,NOT AVAILABLE,OG010
-8032136.5197,5450038.5065,62,502699,FAIRLEE TRANSFER STATION,NOT AVAILABLE,FAIRLEE,VT,05045,NOT AVAILABLE,(802) 333-9653,TRANSFER,OPEN,ORANGE,50017,USA,43.900378883079,-72.1539099982478,562111,"WASTE TRANSFER STATIONS, NONHAZARDOUS SOLID",https://anrweb.vt.gov/DEC/ERT/DataDump.aspx,2019/05/03 00:00:00+00,IMAGERY/OTHER,2020/04/05 00:00:00+00,NOT AVAILABLE,NOT AVAILABLE,NOT AVAILABLE,NOT AVAILABLE,NOT AVAILABLE,OG950
-7222645.4976,2074051.6634,63,782659,BOVONI LANDFILL,BOVONI ROAD,SAINT THOMAS,VI,00802,NOT AVAILABLE,(340) 775-3665,"MUNICIPAL, C&D",OPEN,SAINT THOMAS,78030,VIR,18.3115867370383,-64.8821284228883,562212,"SOLID WASTE LANDFILLS, NONHAZARDOUS",http://www.viwma.org/Business_Information/Solid_Waste_2.aspx,2019/09/20 00:00:00+00,IMAGERY/OTHER,2019/09/20 00:00:00+00,http://www.viwma.org/Business_Information/Solid_Waste_2.aspx,110008202783,NOT AVAILABLE,VIRGIN ISLANDS WASTE MANAGEMENT AUTHORITY,NOT AVAILABLE,NOT AVAILABLE
-7336767.0755,2066927.1863,64,722125,JUNCOS MSW LANDFILL,"BO CIEBANORTE, ROAD 189",JUNCOS,PR,00777,NOT AVAILABLE,NOT AVAILABLE,MUNICIPAL,OPEN,JUNCOS,72077,PRI,18.2508166667558,-65.9072999997951,562212,"SOLID WASTE LANDFILLS, NONHAZARDOUS",http://www.ads.pr.gov/mapas/mapa-srs.html,2020/01/02 00:00:00+00,IMAGERY/OTHER,2020/01/02 00:00:00+00,NOT AVAILABLE,110009309373,NOT AVAILABLE,NOT AVAILABLE,NOT AVAILABLE,NOT AVAILABLE
-16653700.4183,8693145.3137,65,23,ANCHORAGE REGIONAL LANDFILL,15500 E EAGLE RIVER LOOP RD,EAGLE RIVER,AK,99577,NOT AVAILABLE,(907) 343-6250,"MUNICIPAL, C&D",OPEN,ANCHORAGE,02020,USA,61.2918453477846,-149.602736229094,562212,"SOLID WASTE LANDFILLS, NONHAZARDOUS",http://dec.alaska.gov/Applications/EH/SWIMS/ModFacility.aspx?SiteId=359,2019/05/06 00:00:00+00,IMAGERY/OTHER,2020/05/08 00:00:00+00,http://www.muni.org/Departments/SWS/disposal/Pages/ARL.aspx,110034176692,9/21/2022,MUNICIPALITY OF ANCHORAGE SOLID WASTE SERVICES,NOT AVAILABLE,SW1A001-16
-10291809.5048,5233978.1722,66,19800,VIKING PUMP FOUNDRY SAND LANDFILL,715 VIKING ROAD,CEDAR FALLS,IA,50613,3343,(319) 266-1741,C&D,OPEN,BLACK HAWK,19013,USA,42.4854566078362,-92.4528977940979,562212,"SOLID WASTE LANDFILLS, NONHAZARDOUS",https://programs.iowadnr.gov/solidwaste/reports/pfd.aspx,2019/04/30 00:00:00+00,IMAGERY/OTHER,2020/04/30 00:00:00+00,NOT AVAILABLE,110010032240,NOT AVAILABLE,NOT AVAILABLE,NOT AVAILABLE,07-SDP-12-89
-8934914.5736,4770374.9275,67,542800,MEADOWFILL LANDFILL,1488 DAWSON DR,BRIDGEPORT,WV,26330,9727,(304) 842-2784,"MUNICIPAL, C&D",OPEN,HARRISON,54033,USA,39.3391912521746,-80.2637032376143,562212,"SOLID WASTE LANDFILLS, NONHAZARDOUS",https://dep.wv.gov/WWE/permit/solidwaste/Pages/default.aspx,2019/09/20 00:00:00+00,IMAGERY/OTHER,2019/11/12 00:00:00+00,http://www1.wmsolutions.com/facilities/details/id/242,110001933132,NOT AVAILABLE,WASTE MANAGEMENT INC,NOT AVAILABLE,SWF 1032
-12787555.932,4759991.2727,68,321812,ELY CITY LANDFILL,1003 LACKAWANA RD,ELY,NV,89301,NOT AVAILABLE,(775) 289-1572,"MUNICIPAL, C&D",OPEN,WHITE PINE,32033,USA,39.2670122268328,-114.872569402856,562212,"SOLID WASTE LANDFILLS, NONHAZARDOUS",http://ndep.nv.gov/bwm/landfill.htm,2019/05/02 00:00:00+00,IMAGERY,2020/02/10 00:00:00+00,http://ndep.nv.gov/bwm/landfills_ely.htm,NOT AVAILABLE,NOT AVAILABLE,CITY OF ELY,NOT AVAILABLE,SW224REV03
-12911641.9688,4334868.7554,69,321826,PAHRUMP VALLEY LANDFILL,1410 E MESQUITE AVE,PAHRUMP,NV,89060,NOT AVAILABLE,(775) 727-5777,"MUNICIPAL, C&D",OPEN,NYE,32023,USA,36.2485005221814,-115.987253236947,562212,"SOLID WASTE LANDFILLS, NONHAZARDOUS",http://ndep.nv.gov/bwm/landfill.htm,2019/05/02 00:00:00+00,IMAGERY,2020/02/10 00:00:00+00,"http://candswaste.com/nevada/pahrump, http://ndep.nv.gov/bwm/landfill_pahrump.htm",110009830567,NOT AVAILABLE,NYE COUNTY PUBLIC WORKS,NOT AVAILABLE,SW97REV05
-17403511.2176,9790606.1436,70,226,HUSLIA 1.8 MILE SOUTHEAST LANDFILL,1.8 MILES SOUTHEAST OF HUSLIA CITY COUNCIL/58 DAKLI ST,HUSLIA,AK,99746,NOT AVAILABLE,(907) 829-2266,MUNICIPAL,OPEN,YUKON-KOYUKUK,02290,USA,65.6829466228884,-156.338401240725,562212,"SOLID WASTE LANDFILLS, NONHAZARDOUS",http://dec.alaska.gov/Applications/EH/SWIMS/ModFacility.aspx?siteId=660,2019/05/06 00:00:00+00,IMAGERY/OTHER,2020/05/08 00:00:00+00,http://dec.alaska.gov/Applications/EH/SWIMS/ModFacility.aspx?siteId=660,NOT AVAILABLE,4/16/2022,EIELSON AIR FORCE BASE,NOT AVAILABLE,SW3A087-17
-15989097.2748,11104377.9528,71,229,KAKTOVIK LANDFILL,1 MI SOUTH DUMPS ROAD,KAKTOVIK,AK,99747,NOT AVAILABLE,NOT AVAILABLE,MUNICIPAL,CLOSED,NORTH SLOPE,02185,USA,70.1092821063842,-143.632504611998,562212,"SOLID WASTE LANDFILLS, NONHAZARDOUS",http://dec.alaska.gov/Applications/EH/SWIMS/ModFacility.aspx?siteId=111,2019/05/06 00:00:00+00,IMAGERY/OTHER,2020/05/08 00:00:00+00,http://dec.alaska.gov/Applications/EH/SWIMS/ModFacility.aspx?siteId=111,NOT AVAILABLE,NOT AVAILABLE,NORTH SLOPE BOROUGH,10/6/2016,SW3A076-16
-17670719.1131,9435770.3354,72,230,KALTAG 1.3 MI NORTH LANDFILL,0.8 MI N CEMETERY ROAD,KALTAG,AK,99748,NOT AVAILABLE,(907) 534-2301,"MUNICIPAL, C&D",OPEN,YUKON-KOYUKUK,02290,USA,64.3366422978038,-158.738770606378,562212,"SOLID WASTE LANDFILLS, NONHAZARDOUS",http://dec.alaska.gov/Applications/EH/SWIMS/Directory.aspx?SiteId=568,2019/05/06 00:00:00+00,IMAGERY/OTHER,2020/05/08 00:00:00+00,http://dec.alaska.gov/Applications/EH/SWIMS/ModFacility.aspx?siteId=568,NOT AVAILABLE,12/3/2020,CITY OF KALTAG,NOT AVAILABLE,SW3A079-15
-18101567.6876,10114764.5864,73,234,KOTZEBUE LANDFILL,2.5 MI S AIR FORCE RD,KOTZEBUE,AK,99752,NOT AVAILABLE,(907) 442-3401,"MUNICIPAL, C&D",OPEN,NORTHWEST ARCTIC,02188,USA,66.8546250815823,-162.609149202973,562212,"SOLID WASTE LANDFILLS, NONHAZARDOUS",http://dec.alaska.gov/Applications/EH/SWIMS/ModFacility.aspx?siteId=113,2019/05/06 00:00:00+00,IMAGERY/OTHER,2020/05/08 00:00:00+00,http://www.cityofkotzebue.com/index.asp?Type=B_BASIC&SEC={C0F4553D-68F4-46EB-B4F8-004EE05C8F8D},NOT AVAILABLE,3/31/2018,CITY OF KOTZEBUE,NOT AVAILABLE,SW2A010-18
-17463834.5614,8124481.3107,74,236,NAKNEK BRISTOL BAY BOROUGH LANDFILL,DUMP ROAD,NAKNEK,AK,99633,NOT AVAILABLE,(907) 246-4233,"MUNICIPAL, C&D",OPEN,BRISTOL BAY,02060,USA,58.7403703657998,-156.88029505827,562212,"SOLID WASTE LANDFILLS, NONHAZARDOUS",http://dec.alaska.gov/Applications/EH/SWIMS/ModFacility.aspx?siteId=269,2019/05/06 00:00:00+00,IMAGERY/OTHER,2020/05/08 00:00:00+00,http://www.bristolbayboroughak.us/adminstration/publicworks/index.html,NOT AVAILABLE,2/1/2020,BRISTOL BAY BOROUGH,NOT AVAILABLE,SW2A004-15
-18950258.1967,7790925.8542,75,246,SAINT PAUL ATAQAN LANDFILL,POLOVINA TURNPIKE AND JEEP TRAIL,SAINT PAUL,AK,99660,NOT AVAILABLE,(907) 546-3100,"MUNICIPAL, C&D",OPEN,ALEUTIANS WEST,02016,USA,57.1504214179142,-170.233065760976,562212,"SOLID WASTE LANDFILLS, NONHAZARDOUS",http://dec.alaska.gov/Applications/EH/SWIMS/ModFacility.aspx?siteId=521,2019/05/06 00:00:00+00,IMAGERY/OTHER,2020/05/08 00:00:00+00,http://dec.alaska.gov/Applications/EH/SWIMS/ModFacility.aspx?siteId=521,NOT AVAILABLE,7/23/2019,CITY OF SAINT PAUL,NOT AVAILABLE,SW3A044-19
-9310846.2941,5064778.8585,76,391917,JEHM ENTERPRISES LLC,12505 E GYPSY LN RD,BOWLING GREEN,OH,43402,NOT AVAILABLE,(419) 446-8281,C&D,OPEN,WOOD,39173,USA,41.3545476577482,-83.6407553407863,562212,"SOLID WASTE LANDFILLS, NONHAZARDOUS",http://epa.ohio.gov/portals/34/document/facility_lists/lic_cdd.pdf,2019/05/02 00:00:00+00,IMAGERY,2020/03/09 00:00:00+00,http://jehmdisposal.com/,NOT AVAILABLE,12/31/2018,"JEHM ENTERPRISES, LLC",NOT AVAILABLE,CDDL018857
-9296137.2316,5120786.1398,77,391925,LUCAS COUNTY LANDFILL LLC,6196 HAGMAN RD,TOLEDO,OH,43612,NOT AVAILABLE,(419) 726-9465,C&D,CLOSED,LUCAS,39095,USA,41.7311126770085,-83.5086215840188,562212,"SOLID WASTE LANDFILLS, NONHAZARDOUS",http://epa.ohio.gov/portals/34/document/facility_lists/lic_cdd.pdf,2019/05/02 00:00:00+00,IMAGERY,2020/03/09 00:00:00+00,https://www.co.lucas.oh.us/index.aspx?NID=749,NOT AVAILABLE,12/31/2018,LUCAS COUNTY LANDFILL,NOT AVAILABLE,CDDL018839
-17858966.4157,7426263.0551,78,247,SAND POINT LANDFILL,2.0 MI EAST UNNAMED ROAD OFF NAGAI AVE,SAND POINT,AK,99661,NOT AVAILABLE,(907) 383-5427,MUNICIPAL,OPEN,ALEUTIANS EAST,02013,USA,55.3304366627219,-160.4298248982,562212,"SOLID WASTE LANDFILLS, NONHAZARDOUS",http://dec.alaska.gov/Applications/EH/SWIMS/ModFacility.aspx?siteId=520,2019/05/06 00:00:00+00,IMAGERY/OTHER,2020/05/08 00:00:00+00,http://www.ci.sandpoint.ak.us/publicworks.html,NOT AVAILABLE,5/2/2020,CITY OF SAND POINT,NOT AVAILABLE,SW3A045-15
-16885307.0016,8270522.6521,79,248,SELDOVIA ROCKY RIDGE LANDFILL,SELDOVIA GARBAGE DUMP ROAD,SELDOVIA,AK,99669,NOT AVAILABLE,(907) 262-9667,MUNICIPAL,OPEN,KENAI PENINSULA,02122,USA,59.4145087725619,-151.683293565745,562212,"SOLID WASTE LANDFILLS, NONHAZARDOUS",http://dec.alaska.gov/Applications/EH/SWIMS/ModFacility.aspx?siteId=655,2019/05/06 00:00:00+00,IMAGERY/OTHER,2020/05/08 00:00:00+00,http://www.borough.kenai.ak.us/swd-waste/swd-locations/166-swd-rockyridgelandfill,NOT AVAILABLE,6/18/2019,KENAI PENINSULA BOROUGH,NOT AVAILABLE,SW3A026-19
-17481013.1826,8116730.6662,80,251,SOUTH NAKNEK LANDFILL,0.2 MI SW BEACH RD,SOUTH NAKNEK,AK,99633,NOT AVAILABLE,(907) 246-6605,"MUNICIPAL, C&D",OPEN,BRISTOL BAY,02060,USA,58.7042218886293,-157.03461323821,562212,"SOLID WASTE LANDFILLS, NONHAZARDOUS",http://dec.alaska.gov/Applications/EH/SWIMS/ModFacility.aspx?siteId=307,2019/05/06 00:00:00+00,IMAGERY/OTHER,2020/05/08 00:00:00+00,http://www.bristolbayboroughak.us/adminstration/publicworks/index.html,NOT AVAILABLE,6/16/2022,BRISTOL BAY BOROUGH,NOT AVAILABLE,SW3A065-17
-15960747.6984,9193298.8293,81,252,TANACROSS 2.3 MILE NORTHWEST LANDFILL,MILE 1324 ALASKA HIGHWAY / CEMETERY RD,TANACROSS,AK,99776,NOT AVAILABLE,(907) 883-5024,"MUNICIPAL, C&D",OPEN,SOUTHEAST FAIRBANKS,02240,USA,63.3770158036365,-143.377836034805,562212,"SOLID WASTE LANDFILLS, NONHAZARDOUS",http://dec.alaska.gov/Applications/EH/SWIMS/ModFacility.aspx?siteId=417,2019/05/06 00:00:00+00,IMAGERY/OTHER,2020/05/08 00:00:00+00,http://dec.alaska.gov/Applications/EH/SWIMS/ModFacility.aspx?siteId=645,NOT AVAILABLE,1/17/2022,NATIVE VILLAGE OF TANACROSS,NOT AVAILABLE,SW3A083-17
-16938493.6377,9656017.0994,82,253,TANANA LANDFILL,0.6 MI WEST DUMP ROAD,TANANA,AK,99777,NOT AVAILABLE,NOT AVAILABLE,MUNICIPAL,OPEN,YUKON-KOYUKUK,02290,USA,65.1802726004003,-152.161077247117,562212,"SOLID WASTE LANDFILLS, NONHAZARDOUS",http://dec.alaska.gov/Applications/EH/SWIMS/ModFacility.aspx?siteId=169,2019/05/06 00:00:00+00,IMAGERY/OTHER,2020/05/08 00:00:00+00,http://dec.alaska.gov/Applications/EH/SWIMS/ModFacility.aspx?siteId=169,NOT AVAILABLE,11/27/2022,CITY OF TANANA,NOT AVAILABLE,SW3A063-17
-18514157.125,9664904.1852,83,254,TELLER LANDFILL,3.0 MI SOUTH BOB BLODGETT HIGHWAY,TELLER,AK,99778,NOT AVAILABLE,(907) 642-3401,"MUNICIPAL, C&D",OPEN,NOME,02180,USA,65.2137629262181,-166.315503180128,562212,"SOLID WASTE LANDFILLS, NONHAZARDOUS",http://dec.alaska.gov/Applications/EH/SWIMS/ModFacility.aspx?siteId=170,2019/05/06 00:00:00+00,IMAGERY/OTHER,2020/05/08 00:00:00+00,http://dec.alaska.gov/Applications/EH/SWIMS/ModFacility.aspx?siteId=170,NOT AVAILABLE,4/20/2022,CITY OF TELLER,NOT AVAILABLE,SW3A090-17
-17895664.8763,9328567.3591,84,256,UNALAKLEET LANDFILL,INTERSECTION OF N RIVER RD AND WINTER TRAIL,UNALAKLEET,AK,99684,NOT AVAILABLE,NOT AVAILABLE,MUNICIPAL,OPEN,NOME,02180,USA,63.9164031350967,-160.759492778269,562212,"SOLID WASTE LANDFILLS, NONHAZARDOUS",http://dec.alaska.gov/Applications/EH/SWIMS/ModFacility.aspx?siteId=178,2019/05/06 00:00:00+00,IMAGERY/OTHER,2020/05/08 00:00:00+00,http://cityofunalakleet.org/portfolio/ordinance9205,NOT AVAILABLE,10/10/2021,CITY OF UNALAKLEET,NOT AVAILABLE,SW3A051-16
-8970157.5483,4921242.7435,85,542793,BROOKE/VALERO LANDFILL,HARMON CREEK ROAD,COLLIERS,WV,26062,NOT AVAILABLE,(304) 748-0014,MUNICIPAL,OPEN,BROOKE,54009,USA,40.3794885823323,-80.5802962656601,562212,"SOLID WASTE LANDFILLS, NONHAZARDOUS",https://dep.wv.gov/WWE/permit/solidwaste/Pages/default.aspx,2019/09/20 00:00:00+00,IMAGERY/OTHER,2019/11/12 00:00:00+00,http://www.brookecountyswa.com/faq/faq.html,NOT AVAILABLE,NOT AVAILABLE,NOT AVAILABLE,NOT AVAILABLE,SWF 1013
-9085465.7118,4623948.2067,86,542794,CITY OF CHARLESTON LANDFILL,LANDFILL RD OFF SOUTH PARK RD,CHARLESTON,WV,25304,NOT AVAILABLE,(304) 436-6608,MUNICIPAL,OPEN,KANAWHA,54039,USA,38.3144882166579,-81.6161271227685,562212,"SOLID WASTE LANDFILLS, NONHAZARDOUS",https://dep.wv.gov/WWE/permit/solidwaste/Pages/default.aspx,2019/09/20 00:00:00+00,IMAGERY/OTHER,2019/11/12 00:00:00+00,http://www1.wmsolutions.com/facilities/details/id/239,NOT AVAILABLE,NOT AVAILABLE,WASTE MANAGEMENT INC,NOT AVAILABLE,SWF 1004
-10295019.4114,5886158.8473,87,271369,ULLAND BROS DEMOLITION LANDFILL,1634 HWY. 210,CARLTON,MN,55718,8176,NOT AVAILABLE,C&D,NOT AVAILABLE,CARLTON,27017,USA,46.6563371451432,-92.4817328755717,562212,"SOLID WASTE LANDFILLS, NONHAZARDOUS",NOT AVAILABLE,2019/06/24 00:00:00+00,IMAGERY,2020/04/15 00:00:00+00,NOT AVAILABLE,110008058680,NOT AVAILABLE,NOT AVAILABLE,NOT AVAILABLE,NOT AVAILABLE
-8947741.1842,4553754.1935,88,542797,GREENBRIAR COUNTY SWA LANDFILL,HARPER ROAD,LEWISBURG,WV,24901,NOT AVAILABLE,(304) 645-2489,"MUNICIPAL, C&D",OPEN,GREENBRIER,54025,USA,37.8180501633844,-80.3789266408518,562212,"SOLID WASTE LANDFILLS, NONHAZARDOUS",https://dep.wv.gov/WWE/permit/solidwaste/Pages/default.aspx,2019/09/20 00:00:00+00,IMAGERY/OTHER,2019/11/12 00:00:00+00,http://www.greenbrier-swa.com/landfill.htm,NOT AVAILABLE,NOT AVAILABLE,NOT AVAILABLE,NOT AVAILABLE,SWF-2068-94/WV0109452
-8898624.8106,4619123.5388,89,542804,POCAHONTAS COUNTY SOLID WASTE,COUNTY ROAD 28,DUNMORE,WV,24954,NOT AVAILABLE,(304) 799-4199,"MUNICIPAL, C&D",OPEN,POCAHONTAS,54075,USA,38.2804742569814,-79.9377067498665,562212,"SOLID WASTE LANDFILLS, NONHAZARDOUS",https://dep.wv.gov/WWE/permit/solidwaste/Pages/default.aspx,2019/09/20 00:00:00+00,IMAGERY/OTHER,2019/11/12 00:00:00+00,http://www.pocahontascounty.wv.gov/services/Pages/SolidWasteDisposalServices.aspx,NOT AVAILABLE,NOT AVAILABLE,NOT AVAILABLE,NOT AVAILABLE,SWF 2001
-8847212.7749,4741588.5594,90,542809,TUCKER COUNTY LANDFILL,COUNTY ROAD 32,DAVIS,WV,26292,NOT AVAILABLE,(304) 259-5580,MUNICIPAL,OPEN,TUCKER,54093,USA,39.138908215242,-79.47586457519,562212,"SOLID WASTE LANDFILLS, NONHAZARDOUS",https://dep.wv.gov/WWE/permit/solidwaste/Pages/default.aspx,2019/09/20 00:00:00+00,IMAGERY/OTHER,2019/11/12 00:00:00+00,http://www.tuckercountycommission.com/index.php/government/county-boards/solid-waste-authority,NOT AVAILABLE,NOT AVAILABLE,NOT AVAILABLE,NOT AVAILABLE,SWF 8295
-10303987.036,5164873.6213,91,19799,TAMA COUNTY SANITARY LANDFILL,PO BOX 31,TOLEDO,IA,52342,NOT AVAILABLE,(641) 484-5061,"MUNICIPAL, C&D",OPEN,TAMA,19171,USA,42.025991373703,-92.5622904176686,562212,"SOLID WASTE LANDFILLS, NONHAZARDOUS",https://programs.iowadnr.gov/solidwaste/reports/pfd.aspx,2019/04/30 00:00:00+00,IMAGERY/OTHER,2020/04/30 00:00:00+00,http://www.tamacity.govoffice2.com/index.asp?SEC=A5E546B7-F508-44D7-B55F-BB529EE4201C&DE=44DA42FA-5329-4765-AB78-CCC1401CACF2&Type=B_DIR,NOT AVAILABLE,NOT AVAILABLE,NOT AVAILABLE,NOT AVAILABLE,86-SDP-01-72
-8087690.0506,5450433.4122,92,502732,RANDOLPH TRANSFER STATION-CASELLA,LANDFILL ROAD,RANDOLPH,VT,05060,NOT AVAILABLE,(802) 223-7221,TRANSFER,OPEN,ORANGE,50017,USA,43.902934965876,-72.6529558570272,562111,"WASTE TRANSFER STATIONS, NONHAZARDOUS SOLID",https://anrweb.vt.gov/DEC/ERT/DataDump.aspx,2019/05/03 00:00:00+00,IMAGERY/OTHER,2020/04/05 00:00:00+00,NOT AVAILABLE,NOT AVAILABLE,NOT AVAILABLE,NOT AVAILABLE,NOT AVAILABLE,OG671
-13217819.5627,4754582.1949,93,321829,RUSSELL PASS LANDFILL,55 W WILLIAMS AVE,FALLON,NV,89406,NOT AVAILABLE,(775) 423-5107,"MUNICIPAL, C&D",OPEN,CHURCHILL,32001,USA,39.2293830797654,-118.737693358761,562212,"SOLID WASTE LANDFILLS, NONHAZARDOUS",http://ndep.nv.gov/bwm/landfill.htm,2019/05/02 00:00:00+00,IMAGERY,2020/02/10 00:00:00+00,http://ndep.nv.gov/bwm/landfill_russell-pass.htm,NOT AVAILABLE,NOT AVAILABLE,CITY OF FALLON,NOT AVAILABLE,SW0200401
-12789348.1398,4353391.0064,94,321806,APEX REGIONAL LANDFILL,13550 N HIGHWAY 93 (EXIT 64) I-15 N,LAS VEGAS,NV,89025,NOT AVAILABLE,(702) 644-4210,"MUNICIPAL, C&D",CLOSED,CLARK,32003,USA,36.3825707099704,-114.888669078715,562212,"SOLID WASTE LANDFILLS, NONHAZARDOUS",http://ndep.nv.gov/bwm/landfill.htm,2019/05/02 00:00:00+00,IMAGERY,2020/02/10 00:00:00+00,http://www.clarkcountynv.gov/Depts/eco_county/Pages/RepublicServicesTransferStationandSolidWasteLocations.aspx,NOT AVAILABLE,NOT AVAILABLE,"REPUBLIC SERVICES, INC.",NOT AVAILABLE,NOT AVAILABLE
-12760988.678,4188715.8359,95,321818,LAUGHLIN LANDFILL,"NEEDLES HWY, 0.25 MI S OF HWY 63",LAS VEGAS,NV,89029,NOT AVAILABLE,(702) 280-0069,"MUNICIPAL, C&D",CLOSED,CLARK,32003,USA,35.1825435420509,-114.633911698866,562212,"SOLID WASTE LANDFILLS, NONHAZARDOUS",http://ndep.nv.gov/bwm/landfill.htm,2019/05/02 00:00:00+00,IMAGERY/OTHER,2020/02/10 00:00:00+00,http://www.clarkcountynv.gov/Depts/eco_county/Pages/RepublicServicesTransferStationandSolidWasteLocations.aspx,NOT AVAILABLE,NOT AVAILABLE,"REPUBLIC SERVICES, INC",NOT AVAILABLE,NOT AVAILABLE
-13322818.6307,4749354.4539,96,321809,CARSON CITY LANDFILL,3600 FLINT DR,CARSON CITY,NV,89701,NOT AVAILABLE,(775) 882-6066,MUNICIPAL,OPEN,CARSON CITY (CITY),32510,USA,39.1929962480784,-119.680916035347,562212,"SOLID WASTE LANDFILLS, NONHAZARDOUS",http://ndep.nv.gov/bwm/landfill.htm,2019/05/02 00:00:00+00,IMAGERY,2020/02/10 00:00:00+00,http://www.carson.org/index.aspx?page=1977,NOT AVAILABLE,NOT AVAILABLE,CARSON CITY PUBLIC WORKS,NOT AVAILABLE,SW001REV03
-12143794.3488,5615470.3654,97,562817,CLARK LANDFILL #2,93 WINSOR WAY,CLARK,WY,82435,NOT AVAILABLE,(800) 786-1818,"MUNICIPAL, C&D",OPEN,PARK,56029,USA,44.9615500957603,-109.089560706961,562212,"SOLID WASTE LANDFILLS, NONHAZARDOUS",http://www.parkcounty.us/solidwaste/clark_landfill.html,2019/05/03 00:00:00+00,IMAGERY,2020/03/23 00:00:00+00,http://www.parkcounty.us/solidwaste/clark_landfill.html,NOT AVAILABLE,NOT AVAILABLE,NOT AVAILABLE,NOT AVAILABLE,NOT AVAILABLE
-12135848.9065,5537575.6377,98,562841,PARK COUNTY SWDD - CODY LANDFILL,7753 HWY 120,CODY,WY,82414,NOT AVAILABLE,(307) 587-2443,"MUNICIPAL, C&D",OPEN,PARK,56029,USA,44.4642907222391,-109.018185584697,562212,"SOLID WASTE LANDFILLS, NONHAZARDOUS",http://www.parkcounty.us/solidwaste/cody_landfill.html,2019/05/03 00:00:00+00,IMAGERY,2020/03/23 00:00:00+00,http://www.parkcounty.us/solidwaste/cody_landfill.html,NOT AVAILABLE,NOT AVAILABLE,NOT AVAILABLE,NOT AVAILABLE,NOT AVAILABLE
-12070514.3539,5601053.9308,99,562840,BIG HORN COUNTY LANDFILL,936 LN 13,LOVELL,WY,82435,NOT AVAILABLE,(307) 548-6515,"MUNICIPAL, C&D",OPEN,BIG HORN,56003,USA,44.8698415952135,-108.431275312706,562212,"SOLID WASTE LANDFILLS, NONHAZARDOUS",https://plus.google.com/103486847053380495449/about?gl=us&hl=en,2019/05/03 00:00:00+00,IMAGERY,2020/03/23 00:00:00+00,https://plus.google.com/103486847053380495449/about?gl=us&hl=en,NOT AVAILABLE,NOT AVAILABLE,NOT AVAILABLE,NOT AVAILABLE,NOT AVAILABLE
-11869230.6164,5517586.4601,100,562813,BUFFALO LANDFILL,284 TW ROAD,BUFFALO,WY,82834,NOT AVAILABLE,(307) 684-2541,"MUNICIPAL, C&D",OPEN,JOHNSON,56019,USA,44.3359962297422,-106.623112734865,562212,"SOLID WASTE LANDFILLS, NONHAZARDOUS",http://www.johnsoncountywyoming.org/faq_detail_t3_r23.html,2019/05/03 00:00:00+00,IMAGERY,2020/03/23 00:00:00+00,http://www.johnsoncountywyoming.org/faq_detail_t3_r23.html,NOT AVAILABLE,NOT AVAILABLE,NOT AVAILABLE,NOT AVAILABLE,NOT AVAILABLE
-11596087.8825,5434084.7906,101,562839,NEWCASTLE #2 LANDFILL,355 OLD HWY 85,NEWCASTLE,WY,82701,NOT AVAILABLE,(307) 746-4677,"MUNICIPAL, C&D",OPEN,WESTON,56045,USA,43.7970244480199,-104.169429808239,562212,"SOLID WASTE LANDFILLS, NONHAZARDOUS",https://plus.google.com/110945223209153844088/about?gl=us&hl=en,2019/05/03 00:00:00+00,IMAGERY,2020/03/23 00:00:00+00,https://plus.google.com/110945223209153844088/about?gl=us&hl=en,NOT AVAILABLE,NOT AVAILABLE,NOT AVAILABLE,NOT AVAILABLE,NOT AVAILABLE
-11627640.9456,5277186.847,102,562836,LUSK LANDFILL,211 28 RD. N,LUSK,WY,82225,NOT AVAILABLE,(307) 334-3612,"MUNICIPAL, C&D",OPEN,NIOBRARA,56027,USA,42.7710424182731,-104.45287579698,562212,"SOLID WASTE LANDFILLS, NONHAZARDOUS",http://www.townoflusk.org/index.asp?SEC=7DF6857D-AB5E-45E2-B388-101CD5496049&Type=B_BASIC,2019/05/03 00:00:00+00,IMAGERY,2020/03/23 00:00:00+00,http://www.townoflusk.org/index.asp?SEC=7DF6857D-AB5E-45E2-B388-101CD5496049&Type=B_BASIC,NOT AVAILABLE,NOT AVAILABLE,NOT AVAILABLE,NOT AVAILABLE,NOT AVAILABLE
-11729550.5826,5277300.3385,103,562818,DOUGLAS LANDFILL,420 WEST GRANT ST,DOUGLAS,WY,82633,NOT AVAILABLE,(307) 358-9750,"MUNICIPAL, C&D",OPEN,CONVERSE,56009,USA,42.7717908097981,-105.368345641638,562212,"SOLID WASTE LANDFILLS, NONHAZARDOUS",http://www.cityofdouglas.org/index.aspx?NID=216,2019/05/03 00:00:00+00,IMAGERY,2020/03/23 00:00:00+00,http://www.cityofdouglas.org/index.aspx?NID=216,NOT AVAILABLE,NOT AVAILABLE,NOT AVAILABLE,NOT AVAILABLE,NOT AVAILABLE
-10451696.5741,5660016.3021,104,271373,VEOLIA ES ROLLING HILLS LANDFILL INC,175 COUNTY ROAD 37 NE,BUFFALO,MN,55362,NOT AVAILABLE,NOT AVAILABLE,MUNICIPAL,NOT AVAILABLE,WRIGHT,27171,USA,45.2439991626313,-93.8891877749958,562212,"SOLID WASTE LANDFILLS, NONHAZARDOUS",NOT AVAILABLE,2019/06/24 00:00:00+00,IMAGERY/OTHER,2020/04/15 00:00:00+00,NOT AVAILABLE,110008808264,NOT AVAILABLE,NOT AVAILABLE,NOT AVAILABLE,NOT AVAILABLE
-10415575.1458,5681303.3806,105,271322,ELK RIVER SANITARY LANDFILL,22460 HIGHWAY 169 NW,ELK RIVER,MN,55330,9235,(763) 441-2464,"MUNICIPAL, C&D",OPEN,SHERBURNE,27141,USA,45.3784791112221,-93.5647034639936,562212,"SOLID WASTE LANDFILLS, NONHAZARDOUS",http://www.pca.state.mn.us/index.php/view-document.html?gid=12806,2019/06/24 00:00:00+00,IMAGERY,2020/04/15 00:00:00+00,http://www1.wmsolutions.com/facilities/details/id/69,110034174863,NOT AVAILABLE,WASTE MANAGEMENT INC,NOT AVAILABLE,SW-74
-10358687.403,5586928.9915,106,271351,PINE BEND LANDFILL,2495 117TH ST EAST,INVER GROVE HEIGHTS,MN,55077,NOT AVAILABLE,(651) 457-2778,"MUNICIPAL, C&D",CLOSED,DAKOTA,27037,USA,44.7798454596003,-93.0536721757303,562212,"SOLID WASTE LANDFILLS, NONHAZARDOUS",http://www.pca.state.mn.us/index.php/view-document.html?gid=12806,2019/06/24 00:00:00+00,IMAGERY/OTHER,2020/04/15 00:00:00+00,http://www.dakotavalleyrecycling.org/landfills,110001444045,NOT AVAILABLE,NOT AVAILABLE,NOT AVAILABLE,SW-45
-12022813.0938,5470465.8642,107,562857,WASHAKIE COUNTY LANDFILL,1154 W RIVER RD,WORLAND,WY,82401,NOT AVAILABLE,(307) 347-3846,"MUNICIPAL, C&D",OPEN,WASHAKIE,56043,USA,44.0324538403725,-108.002767602343,562212,"SOLID WASTE LANDFILLS, NONHAZARDOUS",https://plus.google.com/113296307386007377064/about?gl=us&hl=en,2019/05/03 00:00:00+00,IMAGERY,2020/03/23 00:00:00+00,https://plus.google.com/113296307386007377064/about?gl=us&hl=en,NOT AVAILABLE,NOT AVAILABLE,NOT AVAILABLE,NOT AVAILABLE,NOT AVAILABLE
-12045457.0558,5417905.6932,108,562851,THERMOPOLIS LANDFILL,SUNNYSIDE LANE,THERMOPOLIS,WY,82443,NOT AVAILABLE,(307) 864-3556,"MUNICIPAL, C&D",OPEN,HOT SPRINGS,56017,USA,43.6920270118372,-108.206181774669,562212,"SOLID WASTE LANDFILLS, NONHAZARDOUS",http://www.townofthermopolis.com/publicworks.aspx,2019/05/03 00:00:00+00,IMAGERY,2020/03/23 00:00:00+00,http://www.townofthermopolis.com/publicworks.aspx,NOT AVAILABLE,NOT AVAILABLE,NOT AVAILABLE,NOT AVAILABLE,NOT AVAILABLE
-10360127.4812,5587749.3443,109,271301,ALL-STAR DISPOSAL INC TRANSFER/RECYCLING,11278 RICH VALLEY BLVD,INVER GROVE HEIGHTS,MN,55077,5917,NOT AVAILABLE,C&D,NOT AVAILABLE,DAKOTA,27037,USA,44.7850761270616,-93.0666086175936,562212,"SOLID WASTE LANDFILLS, NONHAZARDOUS",http://cf.pca.state.mn.us/wimn/siteInfo.cfm?siteid=5971,2019/06/24 00:00:00+00,IMAGERY/OTHER,2020/04/15 00:00:00+00,NOT AVAILABLE,110008824969,NOT AVAILABLE,NOT AVAILABLE,NOT AVAILABLE,SW-517
-12202116.7518,5395054.5838,110,562819,DUBOIS LANDFILL,100 MTN VIEW DR,DUBOIS,WY,82513,NOT AVAILABLE,(307) 332-7040,"MUNICIPAL, C&D",OPEN,FREMONT,56013,USA,43.5434165366439,-109.613479767577,562212,"SOLID WASTE LANDFILLS, NONHAZARDOUS",http://trashmatters.org/?page_id=80,2019/05/03 00:00:00+00,IMAGERY,2020/03/23 00:00:00+00,http://trashmatters.org/?page_id=80,NOT AVAILABLE,NOT AVAILABLE,NOT AVAILABLE,NOT AVAILABLE,NOT AVAILABLE
-12099343.252,5289191.6549,111,562822,LANDER BALEFILL,52 BEEBEE ROAD,LANDER,WY,82520,NOT AVAILABLE,(307) 332-7040,"MUNICIPAL, C&D",OPEN,FREMONT,56013,USA,42.8501550259338,-108.690249710755,562212,"SOLID WASTE LANDFILLS, NONHAZARDOUS",http://trashmatters.org/?page_id=74,2019/05/03 00:00:00+00,IMAGERY,2020/03/23 00:00:00+00,http://trashmatters.org/?page_id=74,NOT AVAILABLE,NOT AVAILABLE,NOT AVAILABLE,NOT AVAILABLE,NOT AVAILABLE
-12283480.105,5066635.325,112,562853,BRIDGER VALLEY LANDFILL,4461 HWY 412,EVANSTON,WY,82937,NOT AVAILABLE,(307) 782-3736,"MUNICIPAL, C&D",OPEN,UINTA,56041,USA,41.3670647430435,-110.344379205436,562212,"SOLID WASTE LANDFILLS, NONHAZARDOUS",http://www.uintacounty.com/index.aspx?NID=44,2019/05/03 00:00:00+00,IMAGERY,2020/03/23 00:00:00+00,http://www.uintacounty.com/index.aspx?NID=44,NOT AVAILABLE,NOT AVAILABLE,NOT AVAILABLE,NOT AVAILABLE,NOT AVAILABLE
-12183051.7259,5175111.1021,113,562821,EDEN VALLEY SWDD LANDFILL,39 EDEN VALLEY SOLID WASTE RD,FARSON,WY,82932,NOT AVAILABLE,(307) 273-5642,"MUNICIPAL, C&D",OPEN,SWEETWATER,56037,USA,42.094269950298,-109.442215726175,562212,"SOLID WASTE LANDFILLS, NONHAZARDOUS",https://plus.google.com/103021598145760198517/about?gl=us&hl=en,2019/05/03 00:00:00+00,IMAGERY,2020/03/23 00:00:00+00,https://plus.google.com/103021598145760198517/about?gl=us&hl=en,NOT AVAILABLE,NOT AVAILABLE,NOT AVAILABLE,NOT AVAILABLE,NOT AVAILABLE
-11986205.2678,5019849.4118,114,562811,BAGGS SOLID WASTE DISPOSAL SITE,COUNTY RD 144,BAGGS,WY,82325,NOT AVAILABLE,(307) 383-7678,"MUNICIPAL, C&D",OPEN,CARBON,56007,USA,41.0508804092036,-107.673913906402,562212,"SOLID WASTE LANDFILLS, NONHAZARDOUS",http://www.carbonwy.com/index.aspx?NID=888,2019/05/03 00:00:00+00,IMAGERY,2020/03/23 00:00:00+00,http://www.carbonwy.com/index.aspx?NID=888,NOT AVAILABLE,NOT AVAILABLE,NOT AVAILABLE,NOT AVAILABLE,NOT AVAILABLE
-11933870.5604,5135164.1463,115,562844,RAWLINS LANDFILL,3001 GUN CLUB RD,RAWLINS,WY,82301,NOT AVAILABLE,(307) 328-4566,"MUNICIPAL, C&D",OPEN,CARBON,56007,USA,41.8274293405917,-107.203783230811,562212,"SOLID WASTE LANDFILLS, NONHAZARDOUS",http://www.rawlins-wyoming.com/index.aspx?NID=136,2019/05/03 00:00:00+00,IMAGERY,2020/03/23 00:00:00+00,http://www.rawlins-wyoming.com/index.aspx?NID=136,NOT AVAILABLE,NOT AVAILABLE,NOT AVAILABLE,NOT AVAILABLE,NOT AVAILABLE
-10046964.117,5016197.5788,116,17898,KNOX COUNTY LANDFILL #3,200 S CHERRY ST,ONEIDA,IL,61467,NOT AVAILABLE,(309) 375-6045,"MUNICIPAL, C&D",OPEN,KNOX,17095,USA,41.0261366521848,-90.2534142530653,562212,"SOLID WASTE LANDFILLS, NONHAZARDOUS",https://www2.illinois.gov/epa/topics/waste-management/landfills/Pages/landfill-locations.aspx,2019/04/30 00:00:00+00,IMAGERY,2019/09/27 00:00:00+00,https://plus.google.com/109193575471061362479/about?hl=en,958160003,NOT AVAILABLE,KNOX COUNTY,NOT AVAILABLE,NOT AVAILABLE
-10076078.2559,5068772.7828,117,17912,"QUAD CITIES LANDFILL, PHASE IV",13606 KNOXVILLE RD-A,MILAN,IL,61264,NOT AVAILABLE,(309) 787-2303,"MUNICIPAL, C&D",OPEN,ROCK ISLAND,17161,USA,41.3814734092705,-90.5149510129788,562212,"SOLID WASTE LANDFILLS, NONHAZARDOUS",https://www2.illinois.gov/epa/topics/waste-management/landfills/Pages/landfill-locations.aspx,2019/04/30 00:00:00+00,IMAGERY,2019/09/27 00:00:00+00,http://www.millenniumwasteinc.com/landfill.php,1610400018,NOT AVAILABLE,MILLENIUM WASTE INC,NOT AVAILABLE,NOT AVAILABLE
-10019933.8714,5073114.4292,118,17883,ATKINSON LANDFILL,137 COMMERCIAL DR.,ATKINSON,IL,61235,NOT AVAILABLE,(309) 936-7468,"MUNICIPAL, C&D",CLOSED,HENRY,17073,USA,41.4107307494246,-90.0105974256306,562212,"SOLID WASTE LANDFILLS, NONHAZARDOUS",http://www.epa.illinois.gov/topics/waste-management/landfills/landfill-capacity/2014/index,2019/04/30 00:00:00+00,IMAGERY,2019/09/27 00:00:00+00,https://plus.google.com/100677424743184029628/about?gl=us&hl=en,110018140493,NOT AVAILABLE,ATKINSON LANDFILL CO,NOT AVAILABLE,NOT AVAILABLE
-10061247.2019,5092254.2675,119,17919,UPPER ROCK ISLAND COUNTY LANDFILL,17201 20TH AVE N,EAST MOLINE,IL,61244,NOT AVAILABLE,(309) 496-2396,"MUNICIPAL, C&D",OPEN,ROCK ISLAND,17161,USA,41.5395526169598,-90.3817213873321,562212,"SOLID WASTE LANDFILLS, NONHAZARDOUS",https://www2.illinois.gov/epa/topics/waste-management/landfills/Pages/landfill-locations.aspx,2019/04/30 00:00:00+00,IMAGERY,2019/09/27 00:00:00+00,https://plus.google.com/109892349698857926550/about?hl=en,1618100014,NOT AVAILABLE,REPUBLIC SERVICES,NOT AVAILABLE,NOT AVAILABLE
-11689569.2844,5033761.0526,120,562816,CHEYENNE LANDFILL,1461 HAPPY JACK ROAD,CHEYENNE,WY,82009,NOT AVAILABLE,(307) 632-8315,"MUNICIPAL, C&D",OPEN,LARAMIE,56021,USA,41.1450564111245,-105.009187529381,562212,"SOLID WASTE LANDFILLS, NONHAZARDOUS",http://www.cheyennecity.org/index.aspx?nid=233,2019/05/03 00:00:00+00,IMAGERY,2020/03/23 00:00:00+00,http://www.cheyennecity.org/index.aspx?nid=233,NOT AVAILABLE,NOT AVAILABLE,NOT AVAILABLE,NOT AVAILABLE,NOT AVAILABLE
-9913776.1337,5184907.8601,121,17922,WINNEBAGO LANDFILL,8403 LINDENWOOD RD,ROCKFORD,IL,61109,NOT AVAILABLE,(815) 874-4806,"MUNICIPAL, C&D",OPEN,WINNEBAGO,17201,USA,42.1595403863798,-89.0569662420984,562212,"SOLID WASTE LANDFILLS, NONHAZARDOUS",https://www2.illinois.gov/epa/topics/waste-management/landfills/Pages/landfill-locations.aspx,2019/04/30 00:00:00+00,IMAGERY,2019/09/27 00:00:00+00,http://www.rochellelandfill.com/landfills/winnebago-landfill,2018080001,NOT AVAILABLE,WINNEBAGO LANDFILL CO,NOT AVAILABLE,NOT AVAILABLE
-9916119.3374,5181923.4604,122,17879,ADVANCED DISPOSAL SERVICES ORCHARD HILLS LANDFILL INC.,8290 RTE 251,DAVIS JUNCTION,IL,61020,NOT AVAILABLE,(815) 874-9000,"MUNICIPAL, C&D",OPEN,OGLE,17141,USA,42.1396640876276,-89.0780155994403,562212,"SOLID WASTE LANDFILLS, NONHAZARDOUS",https://www2.illinois.gov/epa/topics/waste-management/landfills/Pages/landfill-locations.aspx,2019/04/30 00:00:00+00,IMAGERY,2019/09/27 00:00:00+00,http://www.advanceddisposal.com/landfills/orchard-hills-landfill.aspx,1410175005,NOT AVAILABLE,ADVANCED DISPOSAL SERVICES,NOT AVAILABLE,NOT AVAILABLE
-9951410.8402,5120506.5258,123,17902,LEE COUNTY LANDFILL INC.,1214 S BATAAN RD,DIXON,IL,61021,NOT AVAILABLE,(815) 288-4607,"MUNICIPAL, C&D",OPEN,LEE,17103,USA,41.7292381400282,-89.3950445630561,562212,"SOLID WASTE LANDFILLS, NONHAZARDOUS",https://www2.illinois.gov/epa/topics/waste-management/landfills/Pages/landfill-locations.aspx,2019/04/30 00:00:00+00,IMAGERY,2019/09/27 00:00:00+00,https://plus.google.com/112611066292135055564/about?gl=us&hl=en,1030205110,NOT AVAILABLE,LEE COUNTY LANDFILL INC,NOT AVAILABLE,NOT AVAILABLE
-9907323.1691,5150035.0272,124,17914,ROCHELLE MUNICIPAL LANDFILL NO. 2,6513 MULFORD RD,ROCHELLE,IL,61068,NOT AVAILABLE,(815) 384-4251,"MUNICIPAL, C&D",OPEN,OGLE,17141,USA,41.9268955010266,-88.9989982749504,562212,"SOLID WASTE LANDFILLS, NONHAZARDOUS",https://www2.illinois.gov/epa/topics/waste-management/landfills/Pages/landfill-locations.aspx,2019/04/30 00:00:00+00,IMAGERY,2019/09/27 00:00:00+00,http://www.rochellelandfill.com/landfills/rochelle-landfill,1418030020,NOT AVAILABLE,CITY OF ROCHELLE / WINNEBAGO LANDFILL CO,NOT AVAILABLE,NOT AVAILABLE
-10006276.0703,5130620.6083,125,17910,PRAIRIE HILL RECYCLING AND DISPOSAL FACILITY,18762 LINCOLN RD,MORRISON,IL,61270,NOT AVAILABLE,(815) 772-7308,"MUNICIPAL, C&D",OPEN,WHITESIDE,17195,USA,41.797008319978,-89.8879073102741,562212,"SOLID WASTE LANDFILLS, NONHAZARDOUS",https://www2.illinois.gov/epa/topics/waste-management/landfills/Pages/landfill-locations.aspx,2019/04/30 00:00:00+00,IMAGERY,2019/09/27 00:00:00+00,http://www1.wmsolutions.com/facilities/details/id/32,1950350014,NOT AVAILABLE,WHITESIDE COUNTY / WASTE MANAGEMENT INC,NOT AVAILABLE,1994-579-LF
-11607540.3422,5167792.3381,126,562852,TORRINGTON LANDFILL #2,3969 ROAD 68,TORRINGTON,WY,82240,NOT AVAILABLE,(307) 534-4713,"MUNICIPAL, C&D",OPEN,GOSHEN,56015,USA,42.0454651511958,-104.272309004657,562212,"SOLID WASTE LANDFILLS, NONHAZARDOUS",http://city-of-torrington.org/departments/sanitation-streets/landfill,2019/05/03 00:00:00+00,IMAGERY,2020/03/23 00:00:00+00,http://city-of-torrington.org/departments/sanitation-streets/landfill,NOT AVAILABLE,NOT AVAILABLE,NOT AVAILABLE,NOT AVAILABLE,NOT AVAILABLE
-9869654.8518,5002324.0369,127,17904,LIVINGSTON LANDFILL,14206 E 2100 N RD,PONTIAC,IL,61764,NOT AVAILABLE,(815) 844-3054,"MUNICIPAL, C&D",OPEN,LIVINGSTON,17105,USA,40.9320487928176,-88.6606180237028,562212,"SOLID WASTE LANDFILLS, NONHAZARDOUS",https://www2.illinois.gov/epa/topics/waste-management/landfills/Pages/landfill-locations.aspx,2019/04/30 00:00:00+00,IMAGERY,2019/09/27 00:00:00+00,https://plus.google.com/107048375954473622571/about?gl=us&hl=en,1058210002,NOT AVAILABLE,AMERICAN DISPOSAL SERVICES,NOT AVAILABLE,NOT AVAILABLE
-9813237.7136,5086037.4588,128,17886,CDT LANDFILL,2851 MOUND ROAD,JOLIET,IL,60436,NOT AVAILABLE,NOT AVAILABLE,C&D,CLOSED,WILL,17197,USA,41.4977380763512,-88.1538142478292,562212,"SOLID WASTE LANDFILLS, NONHAZARDOUS",http://www.epa.illinois.gov/topics/waste-management/landfills/landfill-capacity/2014/index,2019/04/30 00:00:00+00,IMAGERY,2019/09/27 00:00:00+00,http://www.epa.gov/oalj/orders/cdt10.pdf,110002385482,NOT AVAILABLE,NOT AVAILABLE,NOT AVAILABLE,NOT AVAILABLE
-9840906.806,5068108.1695,129,17893,ENVIRONTECH INC.,1800 ASHLEY RD,MORRIS,IL,60450,NOT AVAILABLE,(815) 942-1800,"MUNICIPAL, C&D",OPEN,GRUNDY,17063,USA,41.3769935731949,-88.402369934325,562212,"SOLID WASTE LANDFILLS, NONHAZARDOUS",https://www2.illinois.gov/epa/topics/waste-management/landfills/Pages/landfill-locations.aspx,2019/04/30 00:00:00+00,IMAGERY,2019/09/27 00:00:00+00,NOT AVAILABLE,638140002,NOT AVAILABLE,ENVIROTECH INC,NOT AVAILABLE,NOT AVAILABLE
-9872572.4582,5145653.348,130,17891,DEKALB COUNTY LANDFILL,18370 SOMONAUK RD,DEKALB,IL,60115,NOT AVAILABLE,(815) 758-6906,"MUNICIPAL, C&D",OPEN,DEKALB,17037,USA,41.8976040576812,-88.686827327619,562212,"SOLID WASTE LANDFILLS, NONHAZARDOUS",https://www2.illinois.gov/epa/topics/waste-management/landfills/Pages/landfill-locations.aspx,2019/04/30 00:00:00+00,IMAGERY,2019/09/27 00:00:00+00,http://www1.wmsolutions.com/facilities/details/id/33,378020001,NOT AVAILABLE,WASTE MANAGEMENT INC,NOT AVAILABLE,1996-247-LFM
-9799182.4581,5208608.5681,131,17890,COUNTRYSIDE LANDFILL INC.,31725 N RTE 83,GRAYSLAKE,IL,60030,9546,(847) 223-9282,"MUNICIPAL, C&D",OPEN,LAKE,17097,USA,42.3171670309338,-88.0275537403128,562212,"SOLID WASTE LANDFILLS, NONHAZARDOUS",https://www2.illinois.gov/epa/topics/waste-management/landfills/Pages/landfill-locations.aspx,2019/04/30 00:00:00+00,IMAGERY,2019/09/27 00:00:00+00,http://www1.wmsolutions.com/facilities/details/id/24,970250003,NOT AVAILABLE,WASTE MANAGEMENT INC,NOT AVAILABLE,1994-479-LF
-9782971.1259,5233599.3908,132,17881,ADVANCED DISPOSAL SERVICES ZION LANDFILL,701 GREEN BAY RD-E,ZION,IL,60099,NOT AVAILABLE,(847) 599-5910,"MUNICIPAL, C&D",OPEN,LAKE,17097,USA,42.4829472762958,-87.8819248648406,562212,"SOLID WASTE LANDFILLS, NONHAZARDOUS",https://www2.illinois.gov/epa/topics/waste-management/landfills/Pages/landfill-locations.aspx,2019/04/30 00:00:00+00,IMAGERY,2019/09/27 00:00:00+00,http://www.advanceddisposal.com/il/zion/60099,978020002,NOT AVAILABLE,ADVANCED DISPOSAL SERVICES,NOT AVAILABLE,NOT AVAILABLE
-17656929.8166,8246025.9794,133,21,ALEKNAGIK NORTH SHORE LANDFILL,1.85 NORTH OKSTUKUK LAKE TRAIL,ALEKNAGIK,AK,99555,NOT AVAILABLE,(907) 842-5953,"MUNICIPAL, C&D",OPEN,DILLINGHAM,02070,USA,59.3023531924459,-158.614899248601,562212,"SOLID WASTE LANDFILLS, NONHAZARDOUS",http://dec.alaska.gov/Applications/EH/SWIMS/ModFacility.aspx?SiteId=352,2019/05/06 00:00:00+00,IMAGERY/OTHER,2020/05/08 00:00:00+00,http://dec.alaska.gov/Applications/EH/SWIMS/ModFacility.aspx?SiteId=352,NOT AVAILABLE,8/28/2022,CITY OF ALEKNAGIK,NOT AVAILABLE,SW3A002-17
-18288823.1677,8434038.6497,134,210,CHEFORNAK LANDFILL,SW OF VILLAGE,CHEFORNAK,AK,99561,NOT AVAILABLE,(907) 867-8528,MUNICIPAL,OPEN,BETHEL,02050,USA,60.1537060885652,-164.291293800668,562212,"SOLID WASTE LANDFILLS, NONHAZARDOUS",http://dec.alaska.gov/Applications/EH/SWIMS/ModFacility.aspx?siteId=212,2019/05/06 00:00:00+00,IMAGERY/OTHER,2020/05/08 00:00:00+00,http://dec.alaska.gov/Applications/EH/SWIMS/ModFacility.aspx?siteId=212,NOT AVAILABLE,3/11/2020,CITY OF CHEFORNAK,NOT AVAILABLE,SW3A075-15
-9941620.8719,4582032.4328,135,17909,PERRY RIDGE LANDFILL INC.,6305 SACRED HEART ROAD,DUQUOIN,IL,62832,NOT AVAILABLE,(630) 588-0993,"MUNICIPAL, C&D",CLOSED,PERRY,17145,USA,38.0184494745636,-89.3070997819294,562212,"SOLID WASTE LANDFILLS, NONHAZARDOUS",http://www.epa.illinois.gov/topics/waste-management/landfills/landfill-capacity/2014/index,2019/04/30 00:00:00+00,IMAGERY,2019/09/27 00:00:00+00,http://www.perryridgelandfill.com/,110002353818,NOT AVAILABLE,"GERE PROPERTIES, INC",NOT AVAILABLE,2000-064
-9936396.8906,4557586.5979,136,17917,SOUTHERN ILLINOIS REGIONAL LANDFILL INC.,1540 LANDFILL ROAD,DESOTO,IL,62924,NOT AVAILABLE,(618) 867-2909,"MUNICIPAL, C&D",CLOSED,JACKSON,17077,USA,37.8452412292993,-89.2601719587689,562212,"SOLID WASTE LANDFILLS, NONHAZARDOUS",http://www.epa.illinois.gov/topics/waste-management/landfills/landfill-capacity/2014/index,2019/04/30 00:00:00+00,IMAGERY,2019/09/27 00:00:00+00,https://plus.google.com/104157011988345851223/about?hl=en,110001337875,NOT AVAILABLE,REPUBLIC SERVICES,NOT AVAILABLE,NOT AVAILABLE
-8141979.3513,5464439.6131,137,502666,ADDISON SWMD TRANSFER STATION,1223 US 7 SOUTH,MIDDLEBURY,VT,05753,NOT AVAILABLE,(802) 388-2333,TRANSFER,OPEN,ADDISON,50001,USA,43.9935210981203,-73.1406449430096,562111,"WASTE TRANSFER STATIONS, NONHAZARDOUS SOLID",https://anrweb.vt.gov/DEC/ERT/DataDump.aspx,2019/05/03 00:00:00+00,IMAGERY/OTHER,2020/04/05 00:00:00+00,NOT AVAILABLE,NOT AVAILABLE,NOT AVAILABLE,NOT AVAILABLE,NOT AVAILABLE,AD401
-10020367.144,4697611.0573,138,17915,ROXANA LANDFILL INC.,4600 CAHOKIA CREEK RD,EDWARDSVILLE,IL,62084,NOT AVAILABLE,(618) 656-6912,"MUNICIPAL, C&D",OPEN,MADISON,17119,USA,38.831828926264,-90.0144895790308,562212,"SOLID WASTE LANDFILLS, NONHAZARDOUS",https://www2.illinois.gov/epa/topics/waste-management/landfills/Pages/landfill-locations.aspx,2019/04/30 00:00:00+00,IMAGERY,2019/09/27 00:00:00+00,https://plus.google.com/110738987227095804443/about?hl=en,1190900002,NOT AVAILABLE,REPUBLIC SERVICES,NOT AVAILABLE,NOT AVAILABLE
-10111869.912,4825703.6249,139,17895,HICKORY RIDGE LANDFILL,32246 375TH ST,BAYLIS,IL,62314,NOT AVAILABLE,(217) 833-2732,"MUNICIPAL, C&D",OPEN,PIKE,17149,USA,39.7225367981348,-90.8364729301816,562212,"SOLID WASTE LANDFILLS, NONHAZARDOUS",https://www2.illinois.gov/epa/topics/waste-management/landfills/Pages/landfill-locations.aspx,2019/04/30 00:00:00+00,IMAGERY,2019/09/27 00:00:00+00,http://www.pdcarea.com/residential/hickory-ridge-landfill-inc,1498160001,NOT AVAILABLE,PIKE COUNTY / PEORIA DISPOSAL CO,NOT AVAILABLE,1995-155-LF
-10177955.581,5320817.0133,140,19764,CLAYTON COUNTY RECYCLING,11645 ECHO AVE,MONONA,IA,52159,NOT AVAILABLE,(608) 778-0328,TRANSFER,CLOSED,CLAYTON,19043,USA,43.0580840413455,-91.4301305951508,562111,"WASTE TRANSFER STATIONS, NONHAZARDOUS SOLID",https://programs.iowadnr.gov/solidwaste/,2019/04/30 00:00:00+00,IMAGERY/OTHER,2020/04/30 00:00:00+00,http://www.ccrrecycling.com/,NOT AVAILABLE,NOT AVAILABLE,NOT AVAILABLE,NOT AVAILABLE,22-WTM-02-13
-9911500.0232,4934448.7818,141,17882,ADS/MCLEAN COUNTY LANDFILL #2,2980 GRANGER DR,BLOOMINGTON,IL,61705,NOT AVAILABLE,(217) 391-0636,"MUNICIPAL, C&D",OPEN,MCLEAN,17113,USA,40.4697981874365,-89.0365195942039,562212,"SOLID WASTE LANDFILLS, NONHAZARDOUS",https://www2.illinois.gov/epa/topics/waste-management/landfills/Pages/landfill-locations.aspx,2019/04/30 00:00:00+00,IMAGERY,2019/09/27 00:00:00+00,https://plus.google.com/109190609223942963902/about?gl=us&hl=en,1130200042,NOT AVAILABLE,AMERICAN DISPOSAL SERVICES,NOT AVAILABLE,NOT AVAILABLE
-9994421.4186,4974109.6826,142,17907,PEORIA CITY/COUNTY LANDFILL #2,11501 W COTTONWOOD RD,BRIMFIELD,IL,61517,NOT AVAILABLE,(309) 494-8800,"MUNICIPAL, C&D",OPEN,PEORIA,17143,USA,40.7402902847689,-89.7814151621799,562212,"SOLID WASTE LANDFILLS, NONHAZARDOUS",https://www2.illinois.gov/epa/topics/waste-management/landfills/Pages/landfill-locations.aspx,2019/04/30 00:00:00+00,IMAGERY,2019/09/27 00:00:00+00,http://www1.wmsolutions.com/facilities/details/id/27,1438165003,NOT AVAILABLE,PEORIA COUNTY / WASTE MANAGEMENT INC,NOT AVAILABLE,1996-089-LF
-9902825.6027,4883137.7343,143,17888,CLINTON LANDFILL #3,9550 HERITAGE RD,CLINTON,IL,61727,2819,(309) 495-1551,"MUNICIPAL, C&D",OPEN,DEWITT,17039,USA,40.1182278693208,-88.958595948744,562212,"SOLID WASTE LANDFILLS, NONHAZARDOUS",https://www2.illinois.gov/epa/topics/waste-management/landfills/Pages/landfill-locations.aspx,2019/04/30 00:00:00+00,IMAGERY,2019/09/27 00:00:00+00,http://www.pdcarea.com/residential/clinton-landfill-inc,390055036,NOT AVAILABLE,"CLINTON, PEORIA DISPOSAL CO",NOT AVAILABLE,2005-070-FF
-9911962.693,4840376.5575,144,17880,ADVANCED DISPOSAL SERVICES VALLEY VIEW LANDFILL INC.,1145 BEAR RD,MACON,IL,62522,NOT AVAILABLE,(217) 963-2976,"MUNICIPAL, C&D",OPEN,MACON,17115,USA,39.8238430686028,-89.0406758272276,562212,"SOLID WASTE LANDFILLS, NONHAZARDOUS",https://www2.illinois.gov/epa/topics/waste-management/landfills/Pages/landfill-locations.aspx,2019/04/30 00:00:00+00,IMAGERY,2019/09/27 00:00:00+00,http://www.advanceddisposal.com/il/decatur/62522,1158040008,NOT AVAILABLE,ADVANCED DISPOSAL SERVICES,NOT AVAILABLE,NOT AVAILABLE
-9974796.7113,4846177.2904,145,17916,SANGAMON VALLEY LANDFILL INC.,2980 GRANGER DR,SPRINGFIELD,IL,62707,NOT AVAILABLE,(217) 528-9256,"MUNICIPAL, C&D",OPEN,SANGAMON,17167,USA,39.8638519153337,-89.6051234177115,562212,"SOLID WASTE LANDFILLS, NONHAZARDOUS",https://www2.illinois.gov/epa/topics/waste-management/landfills/Pages/landfill-locations.aspx,2019/04/30 00:00:00+00,IMAGERY,2019/09/27 00:00:00+00,https://plus.google.com/100836347100913447142/about?hl=en,1678220037,NOT AVAILABLE,REPUBLIC SERVICES,NOT AVAILABLE,NOT AVAILABLE
-9959601.7584,4929656.2218,146,17897,INDIAN CREEK LANDFILL NO. 2,24501 MCMULLEN RD,HOPEDALE,IL,61747,NOT AVAILABLE,(309) 495-1551,"MUNICIPAL, C&D",OPEN,TAZEWELL,17179,USA,40.437038242421,-89.4686248328697,562212,"SOLID WASTE LANDFILLS, NONHAZARDOUS",https://www2.illinois.gov/epa/topics/waste-management/landfills/Pages/landfill-locations.aspx,2019/04/30 00:00:00+00,IMAGERY,2019/09/27 00:00:00+00,http://www.pdcarea.com/residential/indian-creek-landfill,1790305011,NOT AVAILABLE,TAZEWELL COUNTY / PEORIA DISPOSAL CO,NOT AVAILABLE,2001-391-LFM
-9854641.2136,4736625.5229,147,17900,LANDFILL #33 LTD.,1713 S WILLOW-B,EFFINGHAM,IL,62401,NOT AVAILABLE,(217) 342-3747,"MUNICIPAL, C&D",OPEN,EFFINGHAM,17049,USA,39.1043197938235,-88.5257482172064,562212,"SOLID WASTE LANDFILLS, NONHAZARDOUS",https://www2.illinois.gov/epa/topics/waste-management/landfills/Pages/landfill-locations.aspx,2019/04/30 00:00:00+00,IMAGERY,2019/09/27 00:00:00+00,https://plus.google.com/107506270245448924811/about?gl=us&hl=en,498100007,NOT AVAILABLE,"WENDT FAMILY TRUST, LANDFILL #33 LTD., R. DEIBEL",NOT AVAILABLE,NOT AVAILABLE
-9756637.2545,4930728.8871,148,17896,ILLINOIS LANDFILL,16310 EAST 4000 NORTH RD,HOOPESTON,IL,60942,NOT AVAILABLE,(217) 283-5968,"MUNICIPAL, C&D",OPEN,VERMILION,17183,USA,40.4443719232257,-87.6453636729951,562212,"SOLID WASTE LANDFILLS, NONHAZARDOUS",https://www2.illinois.gov/epa/topics/waste-management/landfills/Pages/landfill-locations.aspx,2019/04/30 00:00:00+00,IMAGERY,2019/09/27 00:00:00+00,http://www.republicservices.com/corporate/localservices/location.aspx?SID=776,1830450009,NOT AVAILABLE,ILLINOIS LANDFILL / REPUBLIC SERVICES,NOT AVAILABLE,NOT AVAILABLE
-9071631.8727,4757844.034,149,542803,NORTHWESTERN LANDFILL,510 EAST DRY RUN RD,PARKERSBURG,WV,26104,NOT AVAILABLE,(304) 428-0602,MUNICIPAL,OPEN,WOOD,54107,USA,39.2520770210377,-81.4918556314322,562212,"SOLID WASTE LANDFILLS, NONHAZARDOUS",https://dep.wv.gov/WWE/permit/solidwaste/Pages/default.aspx,2019/09/20 00:00:00+00,IMAGERY/OTHER,2019/11/12 00:00:00+00,http://www.woodcountyrecycles.com/index.php/landfill-facts,110034181515,NOT AVAILABLE,NOT AVAILABLE,NOT AVAILABLE,NOT AVAILABLE
-9083134.5628,4502174.5517,150,542795,COPPER RIDGE LANDFILL,ROUTE 7,CAPELS,WV,24801,NOT AVAILABLE,(304) 888-1178,MUNICIPAL,OPEN,MCDOWELL,54047,USA,37.4511165765688,-81.5951860545927,562212,"SOLID WASTE LANDFILLS, NONHAZARDOUS",https://dep.wv.gov/WWE/permit/solidwaste/Pages/default.aspx,2019/09/20 00:00:00+00,IMAGERY/OTHER,2019/11/12 00:00:00+00,http://www.esiwaste.com/waste-recycling-centers-locations/landfills/copper-ridge-landfill/,110037606677,NOT AVAILABLE,NOT AVAILABLE,NOT AVAILABLE,SWF 1033
-8145399.5365,5469474.3932,151,502714,MIDDLEBURY RECYCLING & TRANSFER STATION,533 EXCHANGE STREET,MIDDLEBURY,VT,05753,NOT AVAILABLE,(802) 651-5454,TRANSFER,OPEN,ADDISON,50001,USA,44.026050174576,-73.1713689892874,562111,"WASTE TRANSFER STATIONS, NONHAZARDOUS SOLID",https://anrweb.vt.gov/DEC/ERT/DataDump.aspx,2019/05/03 00:00:00+00,IMAGERY/OTHER,2020/04/05 00:00:00+00,NOT AVAILABLE,NOT AVAILABLE,NOT AVAILABLE,NOT AVAILABLE,NOT AVAILABLE,AD002
-8125538.5656,5404409.5548,152,502735,RUTLAND COUNTY SOLID WASTE DISTRICT T.S.,NOT AVAILABLE,RUTLAND CITY,VT,05701,NOT AVAILABLE,(802) 775-7209,TRANSFER,OPEN,RUTLAND,50021,USA,43.6043002920249,-72.9929548519848,562111,"WASTE TRANSFER STATIONS, NONHAZARDOUS SOLID",https://anrweb.vt.gov/DEC/ERT/DataDump.aspx,2019/05/03 00:00:00+00,IMAGERY/OTHER,2020/04/05 00:00:00+00,NOT AVAILABLE,NOT AVAILABLE,NOT AVAILABLE,NOT AVAILABLE,NOT AVAILABLE,RU623
-9160542.7021,4995716.1739,153,391885,C&R ENTERPRISES C&D LANDFILL,1231 TOWNSHIP RD 1175,ASHLAND,OH,44805,NOT AVAILABLE,(419) 289-1000,C&D,CLOSED,ASHLAND,39005,USA,40.8871882799152,-82.2905552011616,562212,"SOLID WASTE LANDFILLS, NONHAZARDOUS",http://epa.ohio.gov/portals/34/document/facility_lists/lic_cdd.pdf,2019/05/02 00:00:00+00,IMAGERY,2020/03/09 00:00:00+00,NOT AVAILABLE,NOT AVAILABLE,12/31/2018,NOT AVAILABLE,NOT AVAILABLE,NOT AVAILABLE
-8120849.3033,5410833.6846,154,502736,RUTLAND TOWN TRANSFER STATION,NOT AVAILABLE,RUTLAND TOWN,VT,05701,NOT AVAILABLE,(802) 773-8901,TRANSFER,OPEN,RUTLAND,50021,USA,43.6460739809295,-72.9508304922334,562111,"WASTE TRANSFER STATIONS, NONHAZARDOUS SOLID",https://anrweb.vt.gov/DEC/ERT/DataDump.aspx,2019/05/03 00:00:00+00,IMAGERY/OTHER,2020/04/05 00:00:00+00,NOT AVAILABLE,NOT AVAILABLE,NOT AVAILABLE,NOT AVAILABLE,NOT AVAILABLE,RU681
-8108310.6238,5379360.2443,155,502717,MOUNT HOLLY TRANSFER STATION,36 SHARON LANE,MOUNT HOLLY,VT,05730,NOT AVAILABLE,(802) 259-2391,TRANSFER,OPEN,RUTLAND,50021,USA,43.4411368417919,-72.8381936174414,562111,"WASTE TRANSFER STATIONS, NONHAZARDOUS SOLID",https://anrweb.vt.gov/DEC/ERT/DataDump.aspx,2019/05/03 00:00:00+00,IMAGERY/OTHER,2020/04/05 00:00:00+00,NOT AVAILABLE,NOT AVAILABLE,NOT AVAILABLE,NOT AVAILABLE,NOT AVAILABLE,RU043
-8137411.3741,5432870.7477,156,502674,BRANDON TRANSFER STATION,61 CORONA STREET,BRANDON,VT,05733,NOT AVAILABLE,(802) 247-3635,TRANSFER,OPEN,RUTLAND,50021,USA,43.789152068813,-73.0996101056218,562111,"WASTE TRANSFER STATIONS, NONHAZARDOUS SOLID",https://anrweb.vt.gov/DEC/ERT/DataDump.aspx,2019/05/03 00:00:00+00,IMAGERY/OTHER,2020/04/05 00:00:00+00,NOT AVAILABLE,NOT AVAILABLE,NOT AVAILABLE,NOT AVAILABLE,NOT AVAILABLE,RU081
-8145395.4985,5403807.6377,157,502684,CASTLETON TRANSFER STATION,STASO ROAD,CASTLETON,VT,05735,NOT AVAILABLE,(802) 468-5319,TRANSFER,OPEN,RUTLAND,50021,USA,43.6003847652448,-73.1713327151327,562111,"WASTE TRANSFER STATIONS, NONHAZARDOUS SOLID",https://anrweb.vt.gov/DEC/ERT/DataDump.aspx,2019/05/03 00:00:00+00,IMAGERY/OTHER,2020/04/05 00:00:00+00,NOT AVAILABLE,NOT AVAILABLE,NOT AVAILABLE,NOT AVAILABLE,NOT AVAILABLE,RU101
-13209743.2732,4650914.2378,158,321816,HAWTHORNE LANDFILL,COREY VIEW DRIVE,HAWTHORNE,NV,89415,NOT AVAILABLE,(775) 945-2486,"MUNICIPAL, C&D",OPEN,MINERAL,32021,USA,38.5043052278041,-118.665142816288,562212,"SOLID WASTE LANDFILLS, NONHAZARDOUS",http://ndep.nv.gov/bwm/landfill.htm,2019/05/02 00:00:00+00,IMAGERY,2020/02/10 00:00:00+00,http://ndep.nv.gov/bwm/landfill_hawthorne-class-1.htm,NOT AVAILABLE,NOT AVAILABLE,HAWTHORNE UTILITIES,NOT AVAILABLE,SW1200201
-13315974.998,4793150.5723,159,321819,LOCKWOOD REGIONAL LANDFILL,2401 CANYON WAY,SPARKS,NV,89434,NOT AVAILABLE,(775) 343-7372,"MUNICIPAL, C&D",OPEN,STOREY,32029,USA,39.4972488761348,-119.619438636584,562212,"SOLID WASTE LANDFILLS, NONHAZARDOUS",http://ndep.nv.gov/bwm/landfill.htm,2019/05/02 00:00:00+00,IMAGERY,2020/02/10 00:00:00+00,http://ndep.nv.gov/bwm/landfill_lockwood.htm,110012207931,NOT AVAILABLE,WASTE MANAGEMENT OF NEVADA,NOT AVAILABLE,SW214R03
-8121447.2831,5420466.5616,160,502690,CHITTENDEN TRANSFER STATION,HOLDEN ROAD,CHITTENDEN,VT,05737,NOT AVAILABLE,(802) 483-6647,TRANSFER,OPEN,RUTLAND,50021,USA,43.7086585386607,-72.9562022354448,562111,"WASTE TRANSFER STATIONS, NONHAZARDOUS SOLID",https://anrweb.vt.gov/DEC/ERT/DataDump.aspx,2019/05/03 00:00:00+00,IMAGERY/OTHER,2020/04/05 00:00:00+00,NOT AVAILABLE,NOT AVAILABLE,NOT AVAILABLE,NOT AVAILABLE,NOT AVAILABLE,RU141
-8107719.1974,5392359.0501,161,502738,SHREWSBURY TRANSFER STATION,130 MT SCHOOL ROAD,SHREWSBURY,VT,05738,NOT AVAILABLE,(802) 492-3511,TRANSFER,OPEN,RUTLAND,50021,USA,43.5258621183422,-72.8328807438512,562111,"WASTE TRANSFER STATIONS, NONHAZARDOUS SOLID",https://anrweb.vt.gov/DEC/ERT/DataDump.aspx,2019/05/03 00:00:00+00,IMAGERY/OTHER,2020/04/05 00:00:00+00,NOT AVAILABLE,NOT AVAILABLE,NOT AVAILABLE,NOT AVAILABLE,NOT AVAILABLE,RU781
-9363688.6641,4970572.3894,162,391969,WRIGHT REFUSE INC TRANSFER STATION,1400 S METCALF ST,LIMA,OH,45804,NOT AVAILABLE,(419) 224-3636,TRANSFER,OPEN,ALLEN,39003,USA,40.7162099935964,-84.1154464272108,562111,"WASTE TRANSFER STATIONS, NONHAZARDOUS SOLID",http://epa.ohio.gov/portals/34/document/facility_lists/lic_cdd.pdf,2019/05/02 00:00:00+00,IMAGERY/OTHER,2020/03/09 00:00:00+00,NOT AVAILABLE,NOT AVAILABLE,12/31/2018,ALLEN CO REFUSE METCALF ST TRANSFER STATION,NOT AVAILABLE,SWTF018460
-9365658.3209,4969390.4384,163,392025,WASTE MANAGEMENT OF OHIO INC - LIMA,1555 BUCKEYE RD,LIMA,OH,45804,NOT AVAILABLE,(567) 242-6181,TRANSFER,OPEN,ALLEN,39003,USA,40.7081618643786,-84.1331401549941,562111,"WASTE TRANSFER STATIONS, NONHAZARDOUS SOLID",http://epa.ohio.gov/portals/34/document/facility_lists/lic_cdd.pdf,2019/05/02 00:00:00+00,IMAGERY/OTHER,2020/03/09 00:00:00+00,NOT AVAILABLE,NOT AVAILABLE,12/31/2018,"WASTE MANAGEMENT OF OHIO, LIMA TRANSFER STATION",NOT AVAILABLE,SWTF018371
-9412318.3521,4781041.5632,164,391989,HAMILTON TRANSFER FACILITY,1000 N 3RD ST,HAMILTON,OH,45011,NOT AVAILABLE,(513) 851-0122,TRANSFER,OPEN,BUTLER,39017,USA,39.4132598160877,-84.5522943468066,562111,"WASTE TRANSFER STATIONS, NONHAZARDOUS SOLID",http://epa.ohio.gov/portals/34/document/facility_lists/lic_cdd.pdf,2019/05/02 00:00:00+00,IMAGERY/OTHER,2020/03/09 00:00:00+00,NOT AVAILABLE,NOT AVAILABLE,12/31/2018,RUMPKE,NOT AVAILABLE,SWTF018441
-9020877.2366,4949428.6327,165,391995,KIMBLE TRANSFER & RECYCLING,2403 CHASE RD SE,CARROLLTON,OH,44615,NOT AVAILABLE,(330) 343-1226,TRANSFER,OPEN,CARROLL,39019,USA,40.5720912102412,-81.0359189781782,562111,"WASTE TRANSFER STATIONS, NONHAZARDOUS SOLID",http://epa.ohio.gov/portals/34/document/facility_lists/lic_cdd.pdf,2019/05/02 00:00:00+00,IMAGERY/OTHER,2020/03/09 00:00:00+00,NOT AVAILABLE,NOT AVAILABLE,12/31/2018,KEITH B KIMBLE,NOT AVAILABLE,SWTF018374
-9091464.1316,5059087.0058,166,391974,RUMPKE WASTE INC BROADVIEW HEIGHTS TRANSFER FACILITY,9191 POSTAL DR,BROADVIEW HEIGHTS,OH,44147,NOT AVAILABLE,(513) 851-0122,TRANSFER,OPEN,CUYAHOGA,39035,USA,41.3161557650765,-81.6700118440713,562111,"WASTE TRANSFER STATIONS, NONHAZARDOUS SOLID",http://epa.ohio.gov/portals/34/document/facility_lists/lic_cdd.pdf,2019/05/02 00:00:00+00,IMAGERY/OTHER,2020/03/09 00:00:00+00,NOT AVAILABLE,NOT AVAILABLE,12/31/2018,RUMPKE WASTE INC,NOT AVAILABLE,SWTF018378
-9074408.9493,5065750.8048,167,391980,CLEVELAND TRANSFER/RECYCLING STATION,7450 OAKLEAF RD,OAKWOOD VILLAGE,OH,44146,NOT AVAILABLE,(440) 201-1123,TRANSFER,OPEN,CUYAHOGA,39035,USA,41.361101232436,-81.5168025354087,562111,"WASTE TRANSFER STATIONS, NONHAZARDOUS SOLID",http://epa.ohio.gov/portals/34/document/facility_lists/lic_cdd.pdf,2019/05/02 00:00:00+00,IMAGERY/OTHER,2020/03/09 00:00:00+00,NOT AVAILABLE,NOT AVAILABLE,12/31/2018,CLEVELAND TRANSFER STATION,NOT AVAILABLE,SWTF018383
-9071536.4896,5102175.5697,168,391984,EUCLID TRANSFER FACILTITY,27700 LAKELAND BLVD,EUCLID,OH,44132,NOT AVAILABLE,(216) 289-2701,TRANSFER,OPEN,CUYAHOGA,39035,USA,41.606227784185,-81.4909987906616,562111,"WASTE TRANSFER STATIONS, NONHAZARDOUS SOLID",http://epa.ohio.gov/portals/34/document/facility_lists/lic_cdd.pdf,2019/05/02 00:00:00+00,UNVERIFIED,2020/03/09 00:00:00+00,NOT AVAILABLE,NOT AVAILABLE,12/31/2018,CITY OF EUCLID,NOT AVAILABLE,SWTF018388
-9113314.6086,5083526.6688,169,392015,ROCKY RIVER TRANSFER FACILITY,22401 LAKE RD,ROCKY RIVER,OH,44116,NOT AVAILABLE,(440) 331-0600,TRANSFER,OPEN,CUYAHOGA,39035,USA,41.4808427289088,-81.8662980186386,562111,"WASTE TRANSFER STATIONS, NONHAZARDOUS SOLID",http://epa.ohio.gov/portals/34/document/facility_lists/lic_cdd.pdf,2019/05/02 00:00:00+00,IMAGERY/OTHER,2020/03/09 00:00:00+00,NOT AVAILABLE,NOT AVAILABLE,12/31/2018,CITY OF ROCKY RIVER,NOT AVAILABLE,SWTF018384
-8126177.2785,5364894.6884,170,502695,DANBY TRANSFER STATION,130 BROOK ROAD,DANBY,VT,05739,NOT AVAILABLE,(802) 293-5136,TRANSFER,OPEN,RUTLAND,50021,USA,43.3467117141743,-72.998692507753,562111,"WASTE TRANSFER STATIONS, NONHAZARDOUS SOLID",https://anrweb.vt.gov/DEC/ERT/DataDump.aspx,2019/05/03 00:00:00+00,IMAGERY/OTHER,2020/04/05 00:00:00+00,NOT AVAILABLE,NOT AVAILABLE,NOT AVAILABLE,NOT AVAILABLE,NOT AVAILABLE,RU151
-8161936.1772,5420942.3514,171,502672,BENSON TRANSFER STATION,"503 GLENN ROAD, TH#6",BENSON,VT,05743,NOT AVAILABLE,(802) 537-2611,TRANSFER,OPEN,RUTLAND,50021,USA,43.7117480408394,-73.3199201595876,562111,"WASTE TRANSFER STATIONS, NONHAZARDOUS SOLID",https://anrweb.vt.gov/DEC/ERT/DataDump.aspx,2019/05/03 00:00:00+00,IMAGERY/OTHER,2020/04/05 00:00:00+00,NOT AVAILABLE,NOT AVAILABLE,NOT AVAILABLE,NOT AVAILABLE,NOT AVAILABLE,RU061
-8357798.8228,4947068.4979,172,341761,CROWN VANTAGE LANDFILL,5000 MILFORD FRENCHTOWN RD,MILFORD,NJ,08848,NOT AVAILABLE,NOT AVAILABLE,MUNICIPAL,CLOSED,HUNTERDON,34019,USA,40.5559848991838,-75.07938424089,562212,"SOLID WASTE LANDFILLS, NONHAZARDOUS",http://www.nj.gov/dep/dshw/lrm/landfill.htm,2019/05/01 00:00:00+00,IMAGERY,2019/09/26 00:00:00+00,NOT AVAILABLE,110015651524,NOT AVAILABLE,NOT AVAILABLE,NOT AVAILABLE,1001000434
-8359946.1993,4859765.9703,173,341764,HARRISON AVENUE LANDFILL,HARRISON AVE. & STATE ST,CAMDEN,NJ,08105,NOT AVAILABLE,NOT AVAILABLE,MUNICIPAL,CLOSED,CAMDEN,34007,USA,39.9574845369818,-75.098674452364,562212,"SOLID WASTE LANDFILLS, NONHAZARDOUS",http://www.nj.gov/dep/dshw/lrm/landfill.htm,2019/05/01 00:00:00+00,IMAGERY,2019/09/26 00:00:00+00,NOT AVAILABLE,110038702981,NOT AVAILABLE,NOT AVAILABLE,12/31/1972,408000209
-8364813.2154,4824787.5829,174,341767,LIPARI LANDFILL,RT 322,PITMAN,NJ,08071,NOT AVAILABLE,NOT AVAILABLE,MUNICIPAL,CLOSED,GLOUCESTER,34015,USA,39.7162072283809,-75.1423956015757,562212,"SOLID WASTE LANDFILLS, NONHAZARDOUS",http://www.nj.gov/dep/dshw/lrm/landfill.htm,2019/05/01 00:00:00+00,IMAGERY,2019/09/26 00:00:00+00,NOT AVAILABLE,110009299721,NOT AVAILABLE,NOT AVAILABLE,NOT AVAILABLE,NOT AVAILABLE
-8289149.0204,4919231.4858,175,341765,JIS LANDFILL,RTE 535 CRANBURY RD,JAMESBURG / S BRUNSWICK,NJ,08831,NOT AVAILABLE,NOT AVAILABLE,C&D,CLOSED,MIDDLESEX,34023,USA,40.3657239413069,-74.462692574003,562212,"SOLID WASTE LANDFILLS, NONHAZARDOUS",http://www.nj.gov/dep/dshw/lrm/landfill.htm,2019/05/01 00:00:00+00,IMAGERY,2019/09/26 00:00:00+00,NOT AVAILABLE,110009299589,NOT AVAILABLE,NOT AVAILABLE,12/31/1980,1221000542
-8250684.5153,4884365.1938,176,341758,BRICK TOWNSHIP LANDFILL,SALLY IKE ROAD,BRICK TOWNSHIP,NJ,08724,NOT AVAILABLE,NOT AVAILABLE,C&D,CLOSED,OCEAN,34029,USA,40.1266594586671,-74.1171600451,562212,"SOLID WASTE LANDFILLS, NONHAZARDOUS",http://www.nj.gov/dep/dshw/lrm/landfill.htm,2019/05/01 00:00:00+00,IMAGERY,2019/09/26 00:00:00+00,NOT AVAILABLE,110009299883,NOT AVAILABLE,NOT AVAILABLE,12/31/1979,1506000668
-8295814.7672,4781111.1122,177,341772,PRICE LANDFILL,MILL ROAD,PLEASANTVILLE,NJ,08234,NOT AVAILABLE,NOT AVAILABLE,C&D,CLOSED,ATLANTIC,34001,USA,39.4137425029142,-74.5225719962006,562212,"SOLID WASTE LANDFILLS, NONHAZARDOUS",http://www.nj.gov/dep/dshw/lrm/landfill.htm,2019/05/01 00:00:00+00,IMAGERY,2019/09/26 00:00:00+00,NOT AVAILABLE,110009324533,NOT AVAILABLE,NOT AVAILABLE,12/31/1980,119000044
-9080538.8514,5081024.742,178,392016,SHAKER HEIGHTS TRANSFER FACILITY,15600 CHAGRIN BLVD,SHAKER HEIGHTS,OH,44120,NOT AVAILABLE,(216) 491-1499,TRANSFER,OPEN,CUYAHOGA,39035,USA,41.4640026403097,-81.57186838222,562111,"WASTE TRANSFER STATIONS, NONHAZARDOUS SOLID",http://epa.ohio.gov/portals/34/document/facility_lists/lic_cdd.pdf,2019/05/02 00:00:00+00,IMAGERY/OTHER,2020/03/09 00:00:00+00,NOT AVAILABLE,NOT AVAILABLE,12/31/2018,CITY OF SHAKER HEIGHTS,NOT AVAILABLE,SWTF018385
-9113550.6474,5056527.8939,179,392018,STRONGSVILLE TRANSFER FACILITY,16099 FOLTZ INDUSTRIAL PKWY,STRONGSVILLE,OH,44149,NOT AVAILABLE,(440) 580-3170,TRANSFER,OPEN,CUYAHOGA,39035,USA,41.2988870263152,-81.8684183915955,562111,"WASTE TRANSFER STATIONS, NONHAZARDOUS SOLID",http://epa.ohio.gov/portals/34/document/facility_lists/lic_cdd.pdf,2019/05/02 00:00:00+00,IMAGERY/OTHER,2020/03/09 00:00:00+00,NOT AVAILABLE,NOT AVAILABLE,12/31/2018,CITY OF STRONGSVILLE,NOT AVAILABLE,SWTF018386
-9417725.6928,4876718.7383,180,391988,RUMPKE WASTE INC GREENVILLE TRANSFER FACILITY,5474 JAYSVILLE-ST JOHNS RD,GREENVILLE,OH,45331,NOT AVAILABLE,(513) 851-0122,TRANSFER,OPEN,DARKE,39037,USA,40.0741178640482,-84.6008693151667,562111,"WASTE TRANSFER STATIONS, NONHAZARDOUS SOLID",http://epa.ohio.gov/portals/34/document/facility_lists/lic_cdd.pdf,2019/05/02 00:00:00+00,IMAGERY/OTHER,2020/03/09 00:00:00+00,NOT AVAILABLE,NOT AVAILABLE,12/31/2018,"RUMPKE WASTE, INC.",NOT AVAILABLE,SWTF018389
-9244626.2516,4911496.1297,181,391982,DELEWARE COUNTY TRANSFER FACLITY,888 US RTE 42 N,DELAWARE,OH,43015,NOT AVAILABLE,(740) 833-2000,TRANSFER,OPEN,DELAWARE,39041,USA,40.3127585303819,-83.0458905778878,562111,"WASTE TRANSFER STATIONS, NONHAZARDOUS SOLID",http://epa.ohio.gov/portals/34/document/facility_lists/lic_cdd.pdf,2019/05/02 00:00:00+00,IMAGERY/OTHER,2020/03/09 00:00:00+00,NOT AVAILABLE,NOT AVAILABLE,12/31/2018,DEALWARE COUNTY BOARD OF COMMISSIONERS,NOT AVAILABLE,SWTF018390
-9192571.4133,4822924.9008,182,391999,LANCASTER SANITATION DEPARTMENT,743 S EWING ST,LANCASTER,OH,43130,NOT AVAILABLE,(740) 687-6660,TRANSFER,OPEN,FAIRFIELD,39045,USA,39.7033348749046,-82.5782740092381,562111,"WASTE TRANSFER STATIONS, NONHAZARDOUS SOLID",http://epa.ohio.gov/portals/34/document/facility_lists/lic_cdd.pdf,2019/05/02 00:00:00+00,IMAGERY/OTHER,2020/03/09 00:00:00+00,NOT AVAILABLE,NOT AVAILABLE,12/31/2018,"CITY OF LANCASTER, SANITATION DEPT",NOT AVAILABLE,SWTF018392
-9238757.7223,4864284.5796,183,391981,RUMPKE WASTE INC COLUMBUS TRANSFER & RECYCLING FACILITY,1191 FIELDS AVE,COLUMBUS,OH,43201,NOT AVAILABLE,(513) 851-0122,TRANSFER,OPEN,FRANKLIN,39049,USA,39.9885915946264,-82.9931726819736,562111,"WASTE TRANSFER STATIONS, NONHAZARDOUS SOLID",http://epa.ohio.gov/portals/34/document/facility_lists/lic_cdd.pdf,2019/05/02 00:00:00+00,IMAGERY/OTHER,2020/03/09 00:00:00+00,NOT AVAILABLE,NOT AVAILABLE,12/31/2018,"RUMPKE WASTE, INC.",NOT AVAILABLE,SWTF018457
-9235817.7528,4848976.5436,184,392001,LOCAL WASTE SERVICES INC,1300 S COLUMBUS AIRPORT RD,COLUMBUS,OH,43207,NOT AVAILABLE,(614) 409-9375,TRANSFER,OPEN,FRANKLIN,39049,USA,39.8831505993207,-82.9667624865995,562111,"WASTE TRANSFER STATIONS, NONHAZARDOUS SOLID",http://epa.ohio.gov/portals/34/document/facility_lists/lic_cdd.pdf,2019/05/02 00:00:00+00,IMAGERY/OTHER,2020/03/09 00:00:00+00,NOT AVAILABLE,NOT AVAILABLE,12/31/2018,LOCAL WASTE SERVICES LTD,NOT AVAILABLE,SWTF020088
-16889340.1826,10489696.3256,185,22,ANAKTUVUK PASS 2.3 MILE NORTH LANDFILL,NORTH SLOPE BOROUGH,ANAKTUVUK PASS,AK,99721,NOT AVAILABLE,(907) 852-0371,"MUNICIPAL, C&D",OPEN,NORTH SLOPE,02185,USA,68.1432433293162,-151.719524247246,562212,"SOLID WASTE LANDFILLS, NONHAZARDOUS",http://dec.alaska.gov/Applications/EH/SWIMS/ModFacility.aspx?siteId=518,2019/05/06 00:00:00+00,IMAGERY/OTHER,2020/05/08 00:00:00+00,http://dec.alaska.gov/Applications/EH/SWIMS/ModFacility.aspx?siteId=518,NOT AVAILABLE,10/21/2021,NORTH SLOPE BOROUGH,NOT AVAILABLE,SW3A080-15
-17527807.1556,11234699.5988,186,24,ATQASUK LANDFILL,NORTH SLOPE BOROUGH,ATQASUK,AK,99791,NOT AVAILABLE,(907) 852-0371,MUNICIPAL,OPEN,NORTH SLOPE,02185,USA,70.5037806873289,-157.454970650075,562212,"SOLID WASTE LANDFILLS, NONHAZARDOUS",http://dec.alaska.gov/Applications/EH/SWIMS/ModFacility.aspx?SiteId=38,2019/05/06 00:00:00+00,IMAGERY/OTHER,2020/05/08 00:00:00+00,http://dec.alaska.gov/Applications/EH/SWIMS/ModFacility.aspx?SiteId=38,NOT AVAILABLE,10/17/2021,NORTH SLOPE BOROUGH,NOT AVAILABLE,SW3A006-16
-13041393.5862,4995616.533,187,321821,NORTH VALMY POWER PLANT CLASS III LANDFILL,PO BOX 249,VALMY,NV,89436,NOT AVAILABLE,(775) 834-2371,INDUSTRIAL,OPEN,HUMBOLDT,32013,USA,40.8865115886389,-117.152831846912,562212,"SOLID WASTE LANDFILLS, NONHAZARDOUS",http://ndep.nv.gov/bwm/landfill.htm,2019/05/02 00:00:00+00,IMAGERY,2020/02/10 00:00:00+00,NOT AVAILABLE,NOT AVAILABLE,NOT AVAILABLE,NV ENERGY,NOT AVAILABLE,SW174R03
-17456789.4352,11498179.0381,188,25,BARROW LANDFILL,STEVENSON ST,BARROW,AK,99734,NOT AVAILABLE,(907) 852-2611,"MUNICIPAL, C&D",OPEN,NORTH SLOPE,02185,USA,71.2785063457913,-156.817007612911,562212,"SOLID WASTE LANDFILLS, NONHAZARDOUS",http://dec.alaska.gov/Applications/EH/SWIMS/ModFacility.aspx?siteId=593,2019/05/06 00:00:00+00,IMAGERY/OTHER,2020/05/08 00:00:00+00,http://dec.alaska.gov/Applications/EH/SWIMS/ModFacility.aspx?siteId=593,NOT AVAILABLE,3/31/2019,NORTH SLOPE BOROUGH,NOT AVAILABLE,SW2A003-14
-12882726.4971,4988287.3847,189,321811,ELKO CITY LANDFILL,2200 PINION RD,ELKO,NV,89801,NOT AVAILABLE,(775) 777-7217,"MUNICIPAL, C&D",OPEN,ELKO,32007,USA,40.8367181935898,-115.727501134869,562212,"SOLID WASTE LANDFILLS, NONHAZARDOUS",http://ndep.nv.gov/bwm/landfill.htm,2019/05/02 00:00:00+00,IMAGERY,2020/02/10 00:00:00+00,http://www.ci.elko.nv.us/pubworks/municipal_solid_waste.htm,NOT AVAILABLE,NOT AVAILABLE,"ELKO, CITY OF",NOT AVAILABLE,NOT AVAILABLE
-9237553.7405,4863096.7741,190,392013,REPUBLIC SERVICES INC REYNOLDS AVE TRANSFER FACILITY,821 REYNOLDS AVE,COLUMBUS,OH,43201,NOT AVAILABLE,(614) 353-2083,TRANSFER,OPEN,FRANKLIN,39049,USA,39.9804158633015,-82.9823571292781,562111,"WASTE TRANSFER STATIONS, NONHAZARDOUS SOLID",http://epa.ohio.gov/portals/34/document/facility_lists/lic_cdd.pdf,2019/05/02 00:00:00+00,IMAGERY/OTHER,2020/03/09 00:00:00+00,NOT AVAILABLE,NOT AVAILABLE,12/31/2018,REPUBLIC SERVICES,NOT AVAILABLE,SWTF018398
-9032941.8625,5101235.4989,191,392021,WASTE MANAGEMENT OF OHIO INC,9954 OLD STATE RD,CHARDON,OH,44024,NOT AVAILABLE,(419) 549-0448,TRANSFER,OPEN,GEAUGA,39055,USA,41.5999130793252,-81.144297356238,562111,"WASTE TRANSFER STATIONS, NONHAZARDOUS SOLID",http://epa.ohio.gov/portals/34/document/facility_lists/lic_cdd.pdf,2019/05/02 00:00:00+00,IMAGERY/OTHER,2020/03/09 00:00:00+00,NOT AVAILABLE,NOT AVAILABLE,12/31/2018,UNIVERSAL DISPOSAL INC.,NOT AVAILABLE,SWTF018464
-12705397.2178,4968199.7642,192,321833,WEST WENDOVER CITY LANDFILL,"801 ALPINE ST, PO BOX 2825",WEST WENDOVER,NV,89883,NOT AVAILABLE,(775) 664-3363,MUNICIPAL,OPEN,ELKO,32007,USA,40.70005335288,-114.134525115741,562212,"SOLID WASTE LANDFILLS, NONHAZARDOUS",http://ndep.nv.gov/bwm/landfill.htm,2019/05/02 00:00:00+00,IMAGERY,2020/02/10 00:00:00+00,http://ndep.nv.gov/bwm/landfill_wendover.htm,NOT AVAILABLE,NOT AVAILABLE,CITY OF WEST WENDOVER,NOT AVAILABLE,SW153R01
-9351048.4486,4842731.1213,193,392028,"WASTE MANAGEMENT OF OHIO, FAIRBORN HAULING",1700 N BROAD ST,FAIRBORN,OH,45324,NOT AVAILABLE,(937) 318-5401,TRANSFER,OPEN,GREENE,39057,USA,39.8400857897275,-84.0018974393153,562111,"WASTE TRANSFER STATIONS, NONHAZARDOUS SOLID",http://epa.ohio.gov/portals/34/document/facility_lists/lic_cdd.pdf,2019/05/02 00:00:00+00,IMAGERY/OTHER,2020/03/09 00:00:00+00,NOT AVAILABLE,NOT AVAILABLE,12/31/2018,"WASTE MANAGEMENT OF OHIO, FAIRBORN HAULING",NOT AVAILABLE,SWTF018400
-13108430.0198,5016714.7923,194,321817,HUMBOLDT REGIONAL LANDFILL,25 W 4TH ST,WINNEMUCCA,NV,89445,NOT AVAILABLE,(775) 623-6300,"MUNICIPAL, C&D",OPEN,HUMBOLDT,32013,USA,41.0296417059001,-117.755030376051,562212,"SOLID WASTE LANDFILLS, NONHAZARDOUS",http://ndep.nv.gov/bwm/landfill.htm,2019/05/02 00:00:00+00,IMAGERY,2020/02/10 00:00:00+00,http://ndep.nv.gov/bwm/landfill_humboldt.htm,NOT AVAILABLE,NOT AVAILABLE,HUMBOLDT COUNTY,NOT AVAILABLE,SW068REV02
-9406671.1151,4748370.682,195,391976,REPUBLIC SERVICES CINCINNATI TRANSFER FACILITY,5701 ESTE AVE,CINCINNATI,OH,45232,NOT AVAILABLE,(800) 543-1339,TRANSFER,OPEN,HAMILTON,39061,USA,39.1861467577667,-84.5015643537119,562111,"WASTE TRANSFER STATIONS, NONHAZARDOUS SOLID",http://epa.ohio.gov/portals/34/document/facility_lists/lic_cdd.pdf,2019/05/02 00:00:00+00,IMAGERY/OTHER,2020/03/09 00:00:00+00,NOT AVAILABLE,NOT AVAILABLE,12/31/2018,REPUBLIC SERVICES OF OHIO HAULING LLC,NOT AVAILABLE,SWTF018401
-9399422.8173,4759483.8163,196,391985,REPUBLIC SERVICES EVENDALE TRANSFER FACILITY,10751 EVENDALE DR,CINCINNATI,OH,45241,NOT AVAILABLE,(800) 543-1339,TRANSFER,OPEN,HAMILTON,39061,USA,39.2634828806305,-84.4364517864208,562111,"WASTE TRANSFER STATIONS, NONHAZARDOUS SOLID",http://epa.ohio.gov/portals/34/document/facility_lists/lic_cdd.pdf,2019/05/02 00:00:00+00,IMAGERY/OTHER,2020/03/09 00:00:00+00,NOT AVAILABLE,NOT AVAILABLE,12/31/2018,REPUBLIC SERVICES OF OHIO HAULING LLC,NOT AVAILABLE,SWTF018448
-9203473.6483,5033104.2457,197,391992,HURON COUNTY SOLID WASTE FACILITY,2415 TOWNLINE RD 131 W,WILLARD,OH,44847,NOT AVAILABLE,(419) 668-3092,TRANSFER,OPEN,HURON,39077,USA,41.1406131396847,-82.6762104525503,562111,"WASTE TRANSFER STATIONS, NONHAZARDOUS SOLID",http://epa.ohio.gov/portals/34/document/facility_lists/lic_cdd.pdf,2019/05/02 00:00:00+00,IMAGERY/OTHER,2020/03/09 00:00:00+00,NOT AVAILABLE,NOT AVAILABLE,12/31/2018,HURON COUNTY COMMISSIONERS,NOT AVAILABLE,SWTF018403
-13022027.4607,4953788.0249,198,321807,BATTLE MOUNTAIN LANDFILL,315 S HUMBOLDT / 3.5 MI SW HWY 305,BATTLE MOUNTAIN,NV,89820,NOT AVAILABLE,NOT AVAILABLE,"MUNICIPAL, C&D",OPEN,LANDER,32015,USA,40.6018308972781,-116.978862982041,562212,"SOLID WASTE LANDFILLS, NONHAZARDOUS",http://ndep.nv.gov/bwm/landfill.htm,2019/05/02 00:00:00+00,IMAGERY,2020/02/10 00:00:00+00,http://ndep.nv.gov/bwm/Docs/battle_mt.pdf,NOT AVAILABLE,NOT AVAILABLE,LANDER COUNTY ROAD AND BRIDGE,NOT AVAILABLE,SW070REV02
-12704242.2955,4531464.3063,199,321810,CRESTLINE CLASS II LANDFILL,"CRESTLINE RD, PANACA",SAN FRANCISCO,NV,89042,NOT AVAILABLE,(800) 208-2370,"MUNICIPAL, C&D",OPEN,LINCOLN,32017,USA,37.6597039667647,-114.124150272217,562212,"SOLID WASTE LANDFILLS, NONHAZARDOUS",http://ndep.nv.gov/bwm/landfill.htm,2019/05/02 00:00:00+00,IMAGERY,2020/02/10 00:00:00+00,http://www.recology.com/,NOT AVAILABLE,NOT AVAILABLE,RECOLOGY,NOT AVAILABLE,SW181REV04
-12914318.2748,4391769.3834,200,321822,NTS - AREA 23 LANDFILL,"232 ENERGY WAY, PO BOX 98518 / JACKASS FLATS RD",LAS VEGAS,NV,89193,8518,(702) 295-3521,"MUNICIPAL, C&D",OPEN,NYE,32023,USA,36.6596313494073,-116.011294902238,562212,"SOLID WASTE LANDFILLS, NONHAZARDOUS",http://ndep.nv.gov/bwm/landfill.htm,2019/05/02 00:00:00+00,IMAGERY,2020/02/10 00:00:00+00,"https://ndep.nv.gov/bwm/landfills_nts.htm, https://ndep.nv.gov/bwm/docs/area_23_permit.pdf",NOT AVAILABLE,NOT AVAILABLE,DOE - NNSA,NOT AVAILABLE,SW1309704
-9183519.6074,4924937.8357,201,392011,REPUBLIC SERVICES MOUNT VERNON TRANSFER FACILITY,107 TILDEN AVE,MOUNT VERNON,OH,43050,NOT AVAILABLE,(740) 397-2754,TRANSFER,OPEN,KNOX,39083,USA,40.4047697184478,-82.496960253313,562111,"WASTE TRANSFER STATIONS, NONHAZARDOUS SOLID",http://epa.ohio.gov/portals/34/document/facility_lists/lic_cdd.pdf,2019/05/02 00:00:00+00,IMAGERY/OTHER,2020/03/09 00:00:00+00,NOT AVAILABLE,NOT AVAILABLE,12/31/2018,ALLIED WASTE (REPUBLIC SERVICES),NOT AVAILABLE,SWTF018404
-13037691.4201,4684471.3673,202,321828,ROUND MTN SW DISP SITE,250 N HWY 160,PAHRUMP,NV,89045,NOT AVAILABLE,(775) 482-8135,"MUNICIPAL, C&D",OPEN,NYE,32023,USA,38.7398208399599,-117.119574723395,562212,"SOLID WASTE LANDFILLS, NONHAZARDOUS",http://ndep.nv.gov/bwm/landfill.htm,2019/05/02 00:00:00+00,IMAGERY,2020/02/10 00:00:00+00,http://ndep.nv.gov/bwm/landfill_round-mountain.htm,NOT AVAILABLE,NOT AVAILABLE,NYE COUNTY PUBLIC WORKS,NOT AVAILABLE,SW98REV01
-13042016.6928,4588277.771,203,321831,TONOPAH LANDFILL,250 N HWY 160,PAHRUMP,NV,89049,NOT AVAILABLE,(775) 751-6855,"MUNICIPAL, C&D",OPEN,NYE,32023,USA,38.0626346523674,-117.158429309165,562212,"SOLID WASTE LANDFILLS, NONHAZARDOUS",http://ndep.nv.gov/bwm/landfill.htm,2019/05/02 00:00:00+00,IMAGERY,2020/02/10 00:00:00+00,http://ndep.nv.gov/bwm/landfill_tonopah.htm,NOT AVAILABLE,NOT AVAILABLE,NYE COUNTY PUBLIC WORKS,NOT AVAILABLE,SW103REV01
-12998619.4916,4553031.244,204,321832,TONOPAH TEST RANGE CLASS II,NOT AVAILABLE,LAS VEGAS,NV,89049,NOT AVAILABLE,NOT AVAILABLE,"MUNICIPAL, C&D",OPEN,NYE,32023,USA,37.8129196830969,-116.768585617332,562212,"SOLID WASTE LANDFILLS, NONHAZARDOUS",http://ndep.nv.gov/bwm/landfill.htm,2019/05/02 00:00:00+00,IMAGERY,2020/02/10 00:00:00+00,http://www.nellis.af.mil/shared/media/document/AFD-070517-155.pdf,NOT AVAILABLE,NOT AVAILABLE,DAF/TONOPAH TEST RANGE OPS OFFICE,NOT AVAILABLE,SW209REV01
-14972527.5048,8041816.6847,205,228,JUNEAU CAPITOL DISPOSAL LANDFILL,5600 TONSGARD BLVD,JUNEAU,AK,99801,7201,(907) 780-7801,MUNICIPAL,OPEN,JUNEAU,02110,USA,58.3528888008775,-134.500502994418,562212,"SOLID WASTE LANDFILLS, NONHAZARDOUS",http://dec.alaska.gov/Applications/EH/SWIMS/ModFacility.aspx?siteId=438,2019/05/06 00:00:00+00,IMAGERY/OTHER,2020/05/08 00:00:00+00,http://www.juneau.org/pubworks/thelandfill.php,NOT AVAILABLE,12/17/2020,WASTE MANAGEMENT,NOT AVAILABLE,SW1A004-15
-13196258.5406,4892367.8337,206,321827,PERSHING COUNTY LANDFILL,"1075 AROBIO LN, PO BOX 820",LOVELOCK,NV,89419,NOT AVAILABLE,(775) 273-7334,"MUNICIPAL, C&D",OPEN,PERSHING,32027,USA,40.1816050670203,-118.54400740212,562212,"SOLID WASTE LANDFILLS, NONHAZARDOUS",http://ndep.nv.gov/bwm/landfill.htm,2019/05/02 00:00:00+00,IMAGERY,2020/02/10 00:00:00+00,http://ndep.nv.gov/bwm/landfill_pershing.htm,NOT AVAILABLE,NOT AVAILABLE,PERSHING COUNTY,NOT AVAILABLE,SW108REV02
-12905717.4619,4468107.1895,207,321825,NTS - AREA 9 U10C CLASS III,"232 ENERGY WAY, PO BOX 98518",LAS VEGAS,NV,89001,NOT AVAILABLE,(702) 295-3521,INDUSTRIAL,OPEN,NYE,32023,USA,37.2077717112955,-115.934032485111,562212,"SOLID WASTE LANDFILLS, NONHAZARDOUS",http://ndep.nv.gov/bwm/landfill.htm,2019/05/02 00:00:00+00,IMAGERY,2020/02/10 00:00:00+00,"https://ndep.nv.gov/bwm/landfills_nts.htm, https://ndep.nv.gov/bwm/docs/u10c-permit1.pdf",NOT AVAILABLE,NOT AVAILABLE,DOE - NNSA,NOT AVAILABLE,SW1309703
